{"01001": {"name": "Jan Mayen", "icao": "ENJA", "lat": "70.56", "lon": "-8.40", "elev": "10", "bundesland": "", "report_available": 0}, "01008": {"name": "Svalbard", "icao": "ENSB", "lat": "78.15", "lon": "15.28", "elev": "29", "bundesland": "Spitzbergen", "report_available": 1}, "01025": {"name": "Tromsoe", "icao": "----", "lat": "69.41", "lon": "18.55", "elev": "10", "bundesland": "Troms og Finnmark", "report_available": 1}, "01028": {"name": "Bjornoya", "icao": "ENBJ", "lat": "74.31", "lon": "19.01", "elev": "16", "bundesland": "Spitzbergen", "report_available": 1}, "01049": {"name": "Alta Lufthavn", "icao": "ENAT", "lat": "69.59", "lon": "23.22", "elev": "3", "bundesland": "Troms og Finnmark", "report_available": 1}, "01052": {"name": "Hammerfest", "icao": "ENHF", "lat": "70.40", "lon": "23.40", "elev": "81", "bundesland": "Troms og Finnmark", "report_available": 1}, "01059": {"name": "Banak/Lakselv (Afb)", "icao": "ENNA", "lat": "70.04", "lon": "24.59", "elev": "8", "bundesland": "Troms og Finnmark", "report_available": 0}, "01089": {"name": "Kirkenes", "icao": "ENKR", "lat": "69.44", "lon": "29.54", "elev": "91", "bundesland": "Troms og Finnmark", "report_available": 1}, "01092": {"name": "Makkaur Fyr", "icao": "----", "lat": "70.43", "lon": "30.04", "elev": "9", "bundesland": "Troms og Finnmark", "report_available": 0}, "01112": {"name": "Bronnoysund/Bronnoy", "icao": "ENBN", "lat": "65.27", "lon": "12.13", "elev": "8", "bundesland": "Nordland", "report_available": 0}, "01149": {"name": "Basmoen", "icao": "----", "lat": "66.20", "lon": "14.06", "elev": "34", "bundesland": "", "report_available": 0}, "01152": {"name": "Bodoe", "icao": "ENBO", "lat": "67.16", "lon": "14.22", "elev": "13", "bundesland": "", "report_available": 1}, "01180": {"name": "Harstad", "icao": "----", "lat": "68.48", "lon": "16.32", "elev": "45", "bundesland": "", "report_available": 1}, "01194": {"name": "Narvik", "icao": "----", "lat": "68.28", "lon": "17.30", "elev": "17", "bundesland": "", "report_available": 0}, "01210": {"name": "Alesund Airp", "icao": "ENAL", "lat": "62.34", "lon": "6.07", "elev": "22", "bundesland": "Møre og Romsdal", "report_available": 1}, "01215": {"name": "Hjelvig (Myrbo)", "icao": "----", "lat": "62.37", "lon": "7.14", "elev": "35", "bundesland": "Møre og Romsdal", "report_available": 0}, "01223": {"name": "Kristiansund", "icao": "ENKB", "lat": "63.07", "lon": "7.50", "elev": "44", "bundesland": "Møre og Romsdal", "report_available": 1}, "01238": {"name": "Fokstua 2", "icao": "----", "lat": "62.07", "lon": "9.17", "elev": "973", "bundesland": "Innlandet", "report_available": 1}, "01241": {"name": "Orland", "icao": "ENOL", "lat": "63.42", "lon": "9.36", "elev": "7", "bundesland": "Trøndelag", "report_available": 1}, "01271": {"name": "Trondheim", "icao": "ENVA", "lat": "63.28", "lon": "10.55", "elev": "17", "bundesland": "Trøndelag", "report_available": 1}, "01290": {"name": "Namsos", "icao": "ENNM", "lat": "64.28", "lon": "11.35", "elev": "2", "bundesland": "Trøndelag", "report_available": 0}, "01311": {"name": "Bergen", "icao": "ENBR", "lat": "60.18", "lon": "5.13", "elev": "50", "bundesland": "Vestland", "report_available": 1}, "01338": {"name": "Vangsnes", "icao": "----", "lat": "61.10", "lon": "6.39", "elev": "51", "bundesland": "Vestland", "report_available": 1}, "01347": {"name": "Sogndal", "icao": "ENSG", "lat": "61.09", "lon": "7.08", "elev": "497", "bundesland": "Vestland", "report_available": 0}, "01366": {"name": "Sognefjell", "icao": "----", "lat": "61.34", "lon": "8.00", "elev": "1415", "bundesland": "Innlandet", "report_available": 0}, "01368": {"name": "Fagernes", "icao": "ENFG", "lat": "61.00", "lon": "9.18", "elev": "822", "bundesland": "Innlandet", "report_available": 1}, "01380": {"name": "Venabu", "icao": "----", "lat": "61.39", "lon": "10.07", "elev": "940", "bundesland": "Innlandet", "report_available": 0}, "01384": {"name": "Oslo/Gardermoen", "icao": "ENGM", "lat": "60.12", "lon": "11.06", "elev": "201", "bundesland": "Viken", "report_available": 1}, "01385": {"name": "Hamar-Stavsberg", "icao": "----", "lat": "60.49", "lon": "11.04", "elev": "221", "bundesland": "Innlandet", "report_available": 1}, "01403": {"name": "Utsira Fyr", "icao": "----", "lat": "59.19", "lon": "4.52", "elev": "55", "bundesland": "Rogaland", "report_available": 1}, "01415": {"name": "Glücksburg-Meierwik", "icao": "ENZV", "lat": "54.8273", "lon": "9.5058", "elev": "12", "bundesland": "SH", "report_available": 1}, "01452": {"name": "Kristiansand", "icao": "ENCN", "lat": "58.12", "lon": "8.05", "elev": "17", "bundesland": "", "report_available": 1}, "01475": {"name": "Skien", "icao": "ENSN", "lat": "59.11", "lon": "9.34", "elev": "41", "bundesland": "", "report_available": 0}, "01481": {"name": "Melsom", "icao": "----", "lat": "59.14", "lon": "10.21", "elev": "26", "bundesland": "Vestfold og Telemark", "report_available": 0}, "01488": {"name": "Oslo/Fornebu", "icao": "ENFB", "lat": "59.54", "lon": "10.37", "elev": "16", "bundesland": "", "report_available": 0}, "01492": {"name": "Oslo-Blindern", "icao": "----", "lat": "59.56", "lon": "10.43", "elev": "94", "bundesland": "Oslo", "report_available": 1}, "01493": {"name": "Sarpsborg", "icao": "----", "lat": "59.17", "lon": "11.07", "elev": "54", "bundesland": "Viken", "report_available": 0}, "01494": {"name": "Rygge", "icao": "ENRY", "lat": "59.23", "lon": "10.47", "elev": "53", "bundesland": "Viken", "report_available": 0}, "02049": {"name": "Gallivare Apt", "icao": "ESNG", "lat": "67.09", "lon": "20.39", "elev": "359", "bundesland": "Norrbottens län", "report_available": 0}, "02086": {"name": "Lainio", "icao": "----", "lat": "67.46", "lon": "22.21", "elev": "315", "bundesland": "Norrbottens län", "report_available": 0}, "02096": {"name": "Pajala", "icao": "----", "lat": "67.12", "lon": "23.23", "elev": "165", "bundesland": "Norrbottens län", "report_available": 0}, "02120": {"name": "Kvikkjokk", "icao": "----", "lat": "66.57", "lon": "17.44", "elev": "320", "bundesland": "Norrbottens län", "report_available": 0}, "02128": {"name": "Gunnarn", "icao": "ESPD", "lat": "64.58", "lon": "17.42", "elev": "278", "bundesland": "Västerbottens län", "report_available": 0}, "02186": {"name": "Lulea", "icao": "ESPA", "lat": "65.33", "lon": "22.08", "elev": "17", "bundesland": "Norrbottens län", "report_available": 1}, "02196": {"name": "Haparanda", "icao": "----", "lat": "65.50", "lon": "24.09", "elev": "5", "bundesland": "Lappland", "report_available": 0}, "02226": {"name": "Froson", "icao": "ESPC", "lat": "63.12", "lon": "14.30", "elev": "376", "bundesland": "", "report_available": 1}, "02267": {"name": "Ornskoldsvik", "icao": "----", "lat": "63.18", "lon": "18.41", "elev": "24", "bundesland": "Västernorrlands län", "report_available": 0}, "02284": {"name": "Jaernaesklubb", "icao": "----", "lat": "63.26", "lon": "19.41", "elev": "6", "bundesland": "Västerbottens län", "report_available": 0}, "02286": {"name": "Umea", "icao": "ESNU", "lat": "63.48", "lon": "20.17", "elev": "7", "bundesland": "Västerbottens län", "report_available": 0}, "02293": {"name": "Skelleftehamn", "icao": "ESNS", "lat": "64.38", "lon": "21.05", "elev": "46", "bundesland": "Västerbottens län", "report_available": 0}, "02324": {"name": "Sveg", "icao": "ESND", "lat": "62.02", "lon": "14.22", "elev": "360", "bundesland": "Jämtlands län", "report_available": 0}, "02355": {"name": "Kuggoeren Amos", "icao": "----", "lat": "61.42", "lon": "17.31", "elev": "9", "bundesland": "Gävleborgs län", "report_available": 1}, "02366": {"name": "Timra/Midlanda", "icao": "ESNN", "lat": "62.31", "lon": "17.27", "elev": "3", "bundesland": "Västernorrlands län", "report_available": 1}, "02378": {"name": "Soderhamn", "icao": "ESNY", "lat": "61.16", "lon": "17.06", "elev": "26", "bundesland": "Gävleborgs län", "report_available": 0}, "02404": {"name": "Arvika", "icao": "ESKV", "lat": "59.40", "lon": "12.35", "elev": "77", "bundesland": "Värmlands län", "report_available": 0}, "02418": {"name": "Karlstad", "icao": "ESSQ", "lat": "59.22", "lon": "13.28", "elev": "46", "bundesland": "Värmlands län", "report_available": 1}, "02435": {"name": "Borlange", "icao": "----", "lat": "60.26", "lon": "15.30", "elev": "145", "bundesland": "Dalarnas län", "report_available": 0}, "02458": {"name": "Uppsala", "icao": "ESCM", "lat": "59.53", "lon": "17.36", "elev": "21", "bundesland": "Uppsala län", "report_available": 0}, "02460": {"name": "Stockholm/Arlanda", "icao": "ESSA", "lat": "59.39", "lon": "17.55", "elev": "37", "bundesland": "Stockholms län", "report_available": 0}, "02464": {"name": "Stockholm", "icao": "ESKN", "lat": "59.21", "lon": "17.57", "elev": "15", "bundesland": "Stockholms län", "report_available": 1}, "02469": {"name": "Tullinge", "icao": "----", "lat": "59.11", "lon": "17.55", "elev": "45", "bundesland": "Stockholms län", "report_available": 1}, "02476": {"name": "Floda", "icao": "----", "lat": "59.04", "lon": "16.23", "elev": "32", "bundesland": "Södermanlands län", "report_available": 0}, "02481": {"name": "Sala", "icao": "----", "lat": "59.55", "lon": "16.41", "elev": "57", "bundesland": "Västmanlands län", "report_available": 0}, "02490": {"name": "Svanberga", "icao": "----", "lat": "59.50", "lon": "18.38", "elev": "15", "bundesland": "Stockholms län", "report_available": 0}, "02493": {"name": "Soederarm", "icao": "----", "lat": "59.45", "lon": "19.25", "elev": "15", "bundesland": "Stockholms län", "report_available": 0}, "02500": {"name": "Nordkoster", "icao": "----", "lat": "58.53", "lon": "11.00", "elev": "33", "bundesland": "Västra Götalands län", "report_available": 1}, "02505": {"name": "Maseskar", "icao": "----", "lat": "58.05", "lon": "11.20", "elev": "16", "bundesland": "Västra Götalands län", "report_available": 0}, "02512": {"name": "Goeteborg", "icao": "ESGP", "lat": "57.47", "lon": "11.53", "elev": "20", "bundesland": "Västra Götalands län", "report_available": 0}, "02513": {"name": "Goeteborg", "icao": "----", "lat": "57.42", "lon": "12.00", "elev": "5", "bundesland": "", "report_available": 1}, "02520": {"name": "Satenas", "icao": "ESIB", "lat": "58.26", "lon": "12.43", "elev": "54", "bundesland": "Västra Götalands län", "report_available": 1}, "02527": {"name": "Goteborg/Landvetter", "icao": "ESGG", "lat": "57.40", "lon": "12.30", "elev": "164", "bundesland": "Västra Götalands län", "report_available": 0}, "02542": {"name": "Hallum", "icao": "----", "lat": "58.19", "lon": "13.02", "elev": "70", "bundesland": "Västra Götalands län", "report_available": 0}, "02550": {"name": "Jonkoping", "icao": "ESGJ", "lat": "57.46", "lon": "14.05", "elev": "226", "bundesland": "Jönköpings län", "report_available": 1}, "02559": {"name": "Gladhammar", "icao": "----", "lat": "57.43", "lon": "16.27", "elev": "35", "bundesland": "Kalmar län", "report_available": 0}, "02562": {"name": "Linkoping", "icao": "ESCF", "lat": "58.24", "lon": "15.31", "elev": "93", "bundesland": "Östergötlands län", "report_available": 1}, "02566": {"name": "Malilla", "icao": "----", "lat": "57.24", "lon": "15.49", "elev": "95", "bundesland": "Kalmar län", "report_available": 0}, "02574": {"name": "Norrkoping", "icao": "----", "lat": "58.35", "lon": "16.09", "elev": "35", "bundesland": "Östergötlands län", "report_available": 0}, "02584": {"name": "Gotska Sandon", "icao": "----", "lat": "58.24", "lon": "19.12", "elev": "12", "bundesland": "", "report_available": 0}, "02586": {"name": "Harstena", "icao": "----", "lat": "58.15", "lon": "17.01", "elev": "5", "bundesland": "Östergötlands län", "report_available": 0}, "02590": {"name": "Visby", "icao": "ESSV", "lat": "57.40", "lon": "18.21", "elev": "51", "bundesland": "", "report_available": 1}, "02595": {"name": "Roma/Gotland", "icao": "----", "lat": "57.33", "lon": "18.26", "elev": "35", "bundesland": "Gotlands län", "report_available": 0}, "02603": {"name": "Broen", "icao": "----", "lat": "56.52", "lon": "12.40", "elev": "47", "bundesland": "Hallands län", "report_available": 0}, "02604": {"name": "Halmstad", "icao": "ESMT", "lat": "56.41", "lon": "12.50", "elev": "31", "bundesland": "Hallands län", "report_available": 0}, "02607": {"name": "Angelholm", "icao": "ESDB", "lat": "56.18", "lon": "12.51", "elev": "20", "bundesland": "Skåne län", "report_available": 0}, "02611": {"name": "Helsingborg", "icao": "ESHH", "lat": "56.02", "lon": "12.46", "elev": "43", "bundesland": "", "report_available": 0}, "02616": {"name": "Falsterbo", "icao": "----", "lat": "55.23", "lon": "12.49", "elev": "3", "bundesland": "Skåne län", "report_available": 0}, "02620": {"name": "Torup", "icao": "----", "lat": "56.58", "lon": "13.04", "elev": "85", "bundesland": "Hallands län", "report_available": 0}, "02623": {"name": "Horby", "icao": "----", "lat": "55.52", "lon": "13.40", "elev": "114", "bundesland": "Skåne län", "report_available": 0}, "02625": {"name": "Skillinge", "icao": "----", "lat": "55.29", "lon": "14.19", "elev": "4", "bundesland": "", "report_available": 0}, "02628": {"name": "Hano", "icao": "----", "lat": "56.01", "lon": "14.51", "elev": "60", "bundesland": "Blekinge län", "report_available": 0}, "02635": {"name": "Malmo", "icao": "----", "lat": "55.34", "lon": "13.04", "elev": "20", "bundesland": "", "report_available": 1}, "02636": {"name": "Malmo/Sturup", "icao": "ESMS", "lat": "55.33", "lon": "13.22", "elev": "106", "bundesland": "Skåne län", "report_available": 0}, "02641": {"name": "Vaxjo", "icao": "ESMX", "lat": "56.56", "lon": "14.44", "elev": "182", "bundesland": "Kronobergs län", "report_available": 0}, "02648": {"name": "Vaexjoe", "icao": "----", "lat": "56.51", "lon": "14.50", "elev": "199", "bundesland": "", "report_available": 0}, "02651": {"name": "Kristianstad", "icao": "ESMK", "lat": "55.55", "lon": "14.05", "elev": "23", "bundesland": "Skåne län", "report_available": 0}, "02664": {"name": "Ronneby", "icao": "ESDF", "lat": "56.16", "lon": "15.17", "elev": "58", "bundesland": "Blekinge län", "report_available": 1}, "02670": {"name": "Kalmar", "icao": "ESMQ", "lat": "56.41", "lon": "16.18", "elev": "6", "bundesland": "Kalmar län", "report_available": 0}, "02680": {"name": "Hoburg", "icao": "----", "lat": "56.55", "lon": "18.09", "elev": "40", "bundesland": "Gotlands län", "report_available": 0}, "02752": {"name": "Kristiinankaupungin", "icao": "----", "lat": "62.12", "lon": "21.10", "elev": "2", "bundesland": "Österbotten", "report_available": 0}, "02807": {"name": "Ivalo", "icao": "EFIV", "lat": "68.37", "lon": "27.25", "elev": "147", "bundesland": "Lappland", "report_available": 1}, "02810": {"name": "Enontekio", "icao": "EFET", "lat": "68.22", "lon": "23.36", "elev": "306", "bundesland": "", "report_available": 0}, "02830": {"name": "Kittila", "icao": "EFKT", "lat": "67.42", "lon": "24.51", "elev": "196", "bundesland": "Lappland", "report_available": 0}, "02836": {"name": "Sodankyla", "icao": "EFSO", "lat": "67.22", "lon": "26.39", "elev": "179", "bundesland": "Lappland", "report_available": 1}, "02847": {"name": "Rovaniemi", "icao": "----", "lat": "66.30", "lon": "25.43", "elev": "85", "bundesland": "Lappland", "report_available": 0}, "02869": {"name": "Kuusamo", "icao": "EFKS", "lat": "65.58", "lon": "29.11", "elev": "262", "bundesland": "Nordösterbotten", "report_available": 0}, "02876": {"name": "Oulu", "icao": "----", "lat": "65.01", "lon": "25.23", "elev": "3", "bundesland": "Nordösterbotten", "report_available": 0}, "02897": {"name": "Kajaani", "icao": "EFKI", "lat": "64.17", "lon": "27.41", "elev": "143", "bundesland": "Kainuu", "report_available": 1}, "02911": {"name": "Vaasa", "icao": "EFVA", "lat": "63.03", "lon": "21.46", "elev": "5", "bundesland": "", "report_available": 0}, "02912": {"name": "Vaasa", "icao": "----", "lat": "63.06", "lon": "21.35", "elev": "4", "bundesland": "Österbotten", "report_available": 0}, "02915": {"name": "Viitasaari", "icao": "----", "lat": "63.05", "lon": "25.52", "elev": "132", "bundesland": "Mittelfinnland", "report_available": 1}, "02917": {"name": "Kuopio", "icao": "EFKU", "lat": "63.01", "lon": "27.48", "elev": "98", "bundesland": "Nordsavo", "report_available": 1}, "02929": {"name": "Joensuu Apt", "icao": "EFJO", "lat": "62.40", "lon": "29.38", "elev": "119", "bundesland": "Nordkarelien", "report_available": 0}, "02935": {"name": "Jyvaskyla", "icao": "EFJY", "lat": "62.24", "lon": "25.41", "elev": "141", "bundesland": "Mittelfinnland", "report_available": 0}, "02944": {"name": "Tampere", "icao": "EFTP", "lat": "61.25", "lon": "23.35", "elev": "112", "bundesland": "", "report_available": 1}, "02947": {"name": "Mikkeli", "icao": "----", "lat": "61.44", "lon": "27.18", "elev": "138", "bundesland": "Südsavo", "report_available": 0}, "02948": {"name": "Savonlinna", "icao": "EFSA", "lat": "61.57", "lon": "28.57", "elev": "95", "bundesland": "Südsavo", "report_available": 0}, "02952": {"name": "Pori", "icao": "EFPO", "lat": "61.28", "lon": "21.48", "elev": "13", "bundesland": "Satakunta", "report_available": 0}, "02958": {"name": "Lappeenranta", "icao": "----", "lat": "61.03", "lon": "28.12", "elev": "101", "bundesland": "Südkarelien", "report_available": 0}, "02965": {"name": "Lahti", "icao": "----", "lat": "60.58", "lon": "25.38", "elev": "83", "bundesland": "Päijät-Häme", "report_available": 1}, "02966": {"name": "Utti", "icao": "EFUT", "lat": "60.54", "lon": "26.56", "elev": "100", "bundesland": "Kymenlaakso", "report_available": 0}, "02970": {"name": "Mariehamn", "icao": "EFMA", "lat": "60.07", "lon": "19.54", "elev": "5", "bundesland": "Åländer Land", "report_available": 0}, "02972": {"name": "Turku", "icao": "EFTU", "lat": "60.31", "lon": "22.16", "elev": "47", "bundesland": "Varsinais-Suomi", "report_available": 0}, "02974": {"name": "Helsinki/Vantaa", "icao": "EFHK", "lat": "60.19", "lon": "24.58", "elev": "51", "bundesland": "Uusimaa", "report_available": 1}, "02975": {"name": "Helsinki", "icao": "EFHF", "lat": "60.15", "lon": "25.03", "elev": "17", "bundesland": "Uusimaa", "report_available": 0}, "02982": {"name": "Hanko", "icao": "----", "lat": "59.46", "lon": "22.57", "elev": "5", "bundesland": "Uusimaa", "report_available": 1}, "03005": {"name": "Lerwick", "icao": "----", "lat": "60.08", "lon": "-1.11", "elev": "82", "bundesland": "", "report_available": 1}, "03017": {"name": "Kirkwall", "icao": "EGPA", "lat": "58.57", "lon": "-2.54", "elev": "26", "bundesland": "", "report_available": 1}, "03026": {"name": "Stornoway", "icao": "EGPO", "lat": "58.13", "lon": "-6.19", "elev": "9", "bundesland": "", "report_available": 1}, "03041": {"name": "Aonach Mor", "icao": "----", "lat": "56.49", "lon": "-4.58", "elev": "1130", "bundesland": "Schottland", "report_available": 0}, "03044": {"name": "Altnaharra", "icao": "----", "lat": "58.17", "lon": "-4.26", "elev": "81", "bundesland": "", "report_available": 1}, "03059": {"name": "Inverness", "icao": "EGPE", "lat": "57.32", "lon": "-4.03", "elev": "9", "bundesland": "Schottland", "report_available": 0}, "03063": {"name": "Aviemore", "icao": "----", "lat": "57.13", "lon": "-3.50", "elev": "228", "bundesland": "Schottland", "report_available": 0}, "03065": {"name": "Cairngorm", "icao": "----", "lat": "57.07", "lon": "-3.38", "elev": "1245", "bundesland": "", "report_available": 0}, "03066": {"name": "Kinloss", "icao": "EGQK", "lat": "57.39", "lon": "-3.34", "elev": "6", "bundesland": "Schottland", "report_available": 1}, "03068": {"name": "Lossiemouth", "icao": "EGQS", "lat": "57.43", "lon": "-3.19", "elev": "13", "bundesland": "", "report_available": 1}, "03075": {"name": "Wick", "icao": "EGPC", "lat": "58.27", "lon": "-3.05", "elev": "39", "bundesland": "", "report_available": 1}, "03091": {"name": "Aberdeen", "icao": "EGPD", "lat": "57.12", "lon": "-2.13", "elev": "65", "bundesland": "", "report_available": 1}, "03094": {"name": "Rosehearty", "icao": "----", "lat": "57.42", "lon": "-2.07", "elev": "4", "bundesland": "", "report_available": 0}, "03100": {"name": "Tiree", "icao": "EGPU", "lat": "56.30", "lon": "-6.53", "elev": "12", "bundesland": "", "report_available": 1}, "03114": {"name": "Oban", "icao": "----", "lat": "56.25", "lon": "-5.28", "elev": "4", "bundesland": "Schottland", "report_available": 0}, "03132": {"name": "West Freugh", "icao": "----", "lat": "54.52", "lon": "-4.56", "elev": "11", "bundesland": "England", "report_available": 1}, "03135": {"name": "Prestwick", "icao": "EGPK", "lat": "55.30", "lon": "-4.36", "elev": "20", "bundesland": "Schottland", "report_available": 0}, "03136": {"name": "Prestwick/Rnas", "icao": "----", "lat": "55.31", "lon": "-4.35", "elev": "26", "bundesland": "Schottland", "report_available": 1}, "03140": {"name": "Glasgow", "icao": "EGPF", "lat": "55.52", "lon": "-4.26", "elev": "8", "bundesland": "Schottland", "report_available": 0}, "03154": {"name": "Dumfries", "icao": "----", "lat": "55.03", "lon": "-3.39", "elev": "16", "bundesland": "England", "report_available": 0}, "03158": {"name": "Charterhall", "icao": "----", "lat": "55.43", "lon": "-2.23", "elev": "112", "bundesland": "", "report_available": 1}, "03160": {"name": "Edinburgh", "icao": "EGPH", "lat": "55.57", "lon": "-3.21", "elev": "41", "bundesland": "Schottland", "report_available": 0}, "03162": {"name": "Eskdalemuir", "icao": "----", "lat": "55.19", "lon": "-3.12", "elev": "242", "bundesland": "", "report_available": 1}, "03171": {"name": "Leuchars", "icao": "EGQL", "lat": "56.23", "lon": "-2.52", "elev": "12", "bundesland": "", "report_available": 1}, "03204": {"name": "Isle Of Man/Roual.", "icao": "EGNS", "lat": "54.05", "lon": "-4.38", "elev": "17", "bundesland": "", "report_available": 1}, "03220": {"name": "Carlisle", "icao": "----", "lat": "54.56", "lon": "-2.58", "elev": "28", "bundesland": "", "report_available": 1}, "03235": {"name": "Boltshope Park", "icao": "----", "lat": "54.49", "lon": "-2.05", "elev": "434", "bundesland": "England", "report_available": 0}, "03245": {"name": "Newcastle/Airport", "icao": "EGNT", "lat": "55.02", "lon": "-1.41", "elev": "81", "bundesland": "", "report_available": 0}, "03246": {"name": "Newcastle", "icao": "----", "lat": "55.02", "lon": "-1.41", "elev": "80", "bundesland": "", "report_available": 0}, "03257": {"name": "Leeming", "icao": "EGXE", "lat": "54.18", "lon": "-1.32", "elev": "40", "bundesland": "England", "report_available": 1}, "03261": {"name": "Dishforth Airfield", "icao": "----", "lat": "54.08", "lon": "-1.25", "elev": "36", "bundesland": "England", "report_available": 1}, "03262": {"name": "Tynemouth", "icao": "----", "lat": "55.01", "lon": "-1.25", "elev": "30", "bundesland": "", "report_available": 0}, "03265": {"name": "Topcliffe", "icao": "EGXZ", "lat": "54.12", "lon": "-1.23", "elev": "25", "bundesland": "England", "report_available": 0}, "03266": {"name": "Linton-On-Ouse", "icao": "EGXU", "lat": "54.03", "lon": "-1.15", "elev": "16", "bundesland": "England", "report_available": 0}, "03275": {"name": "Loftus Samos", "icao": "----", "lat": "54.20", "lon": "-0.31", "elev": "158", "bundesland": "", "report_available": 0}, "03292": {"name": "Bridlington", "icao": "----", "lat": "54.05", "lon": "-0.11", "elev": "15", "bundesland": "", "report_available": 1}, "03302": {"name": "Valley", "icao": "EGOV", "lat": "53.15", "lon": "-4.32", "elev": "11", "bundesland": "Wales", "report_available": 1}, "03313": {"name": "Rhyl", "icao": "----", "lat": "53.16", "lon": "-3.31", "elev": "77", "bundesland": "England", "report_available": 0}, "03318": {"name": "Blackpool", "icao": "EGNH", "lat": "53.46", "lon": "-3.02", "elev": "10", "bundesland": "England", "report_available": 0}, "03321": {"name": "Hawarden", "icao": "EGNR", "lat": "53.10", "lon": "-2.59", "elev": "10", "bundesland": "England", "report_available": 1}, "03334": {"name": "Manchester", "icao": "EGCC", "lat": "53.21", "lon": "-2.16", "elev": "78", "bundesland": "", "report_available": 0}, "03347": {"name": "Leeds/Met", "icao": "EGRY", "lat": "53.48", "lon": "-1.33", "elev": "47", "bundesland": "England", "report_available": 0}, "03354": {"name": "Nottingham/Met", "icao": "EGRW", "lat": "53.00", "lon": "-1.15", "elev": "117", "bundesland": "England", "report_available": 1}, "03377": {"name": "Waddington", "icao": "----", "lat": "53.10", "lon": "0.31", "elev": "68", "bundesland": "", "report_available": 1}, "03379": {"name": "Cranwell", "icao": "EGYD", "lat": "53.02", "lon": "-0.30", "elev": "67", "bundesland": "", "report_available": 1}, "03385": {"name": "Donna Nook", "icao": "----", "lat": "53.29", "lon": "0.05", "elev": "8", "bundesland": "England", "report_available": 0}, "03405": {"name": "Aberdaron", "icao": "----", "lat": "52.47", "lon": "-4.44", "elev": "95", "bundesland": "Wales", "report_available": 1}, "03414": {"name": "Shawbury", "icao": "EGOS", "lat": "52.48", "lon": "-2.40", "elev": "76", "bundesland": "England", "report_available": 1}, "03453": {"name": "Cottesmore", "icao": "EGXJ", "lat": "52.44", "lon": "-0.39", "elev": "138", "bundesland": "England", "report_available": 0}, "03462": {"name": "Wittering", "icao": "EGXT", "lat": "52.37", "lon": "-0.28", "elev": "84", "bundesland": "England", "report_available": 1}, "03482": {"name": "Marham", "icao": "EGYM", "lat": "52.39", "lon": "0.34", "elev": "23", "bundesland": "England", "report_available": 1}, "03492": {"name": "Norwich-W.C.", "icao": "EGSH", "lat": "52.38", "lon": "1.18", "elev": "14", "bundesland": "England", "report_available": 0}, "03495": {"name": "Coltishall", "icao": "EGYC", "lat": "52.46", "lon": "1.21", "elev": "20", "bundesland": "England", "report_available": 0}, "03496": {"name": "Hemsby", "icao": "----", "lat": "52.41", "lon": "1.41", "elev": "13", "bundesland": "England", "report_available": 0}, "03499": {"name": "Sm.Knoll", "icao": "----", "lat": "52.43", "lon": "2.18", "elev": "5", "bundesland": "", "report_available": 0}, "03502": {"name": "Aberporth", "icao": "EGUC", "lat": "52.08", "lon": "-4.34", "elev": "133", "bundesland": "Wales", "report_available": 1}, "03503": {"name": "Trawscoed", "icao": "----", "lat": "52.20", "lon": "-3.57", "elev": "63", "bundesland": "England", "report_available": 0}, "03520": {"name": "Shobdon", "icao": "EGBS", "lat": "52.15", "lon": "-2.53", "elev": "99", "bundesland": "England", "report_available": 1}, "03534": {"name": "Birmingham/Airport", "icao": "EGBB", "lat": "52.27", "lon": "-1.45", "elev": "93", "bundesland": "England", "report_available": 0}, "03560": {"name": "Bedford", "icao": "EGVW", "lat": "52.13", "lon": "-0.29", "elev": "85", "bundesland": "England", "report_available": 1}, "03590": {"name": "Wattisham", "icao": "EGUW", "lat": "52.07", "lon": "0.58", "elev": "87", "bundesland": "England", "report_available": 1}, "03604": {"name": "Milford Haven", "icao": "----", "lat": "51.43", "lon": "-5.03", "elev": "44", "bundesland": "Wales", "report_available": 1}, "03628": {"name": "Bristol/Filton", "icao": "EGTG", "lat": "51.31", "lon": "-2.35", "elev": "59", "bundesland": "England", "report_available": 1}, "03647": {"name": "Little Rissington", "icao": "----", "lat": "51.52", "lon": "-1.41", "elev": "215", "bundesland": "England", "report_available": 0}, "03649": {"name": "Brize Norton", "icao": "EGVN", "lat": "51.45", "lon": "-1.35", "elev": "88", "bundesland": "England", "report_available": 0}, "03672": {"name": "Northolt", "icao": "EGWU", "lat": "51.33", "lon": "-0.25", "elev": "38", "bundesland": "England", "report_available": 0}, "03683": {"name": "Stansted", "icao": "EGSS", "lat": "51.53", "lon": "0.14", "elev": "106", "bundesland": "England", "report_available": 0}, "03707": {"name": "Chivenor", "icao": "EGDC", "lat": "51.05", "lon": "-4.09", "elev": "6", "bundesland": "England", "report_available": 0}, "03715": {"name": "Cardiff-Wales", "icao": "EGFF", "lat": "51.24", "lon": "-3.21", "elev": "67", "bundesland": "England", "report_available": 0}, "03716": {"name": "St. Athan /Wales", "icao": "EGSY", "lat": "51.24", "lon": "-3.26", "elev": "50", "bundesland": "England", "report_available": 0}, "03726": {"name": "Bristol/Met.", "icao": "EGRD", "lat": "51.28", "lon": "-2.36", "elev": "11", "bundesland": "England", "report_available": 0}, "03740": {"name": "Lyneham", "icao": "EGDL", "lat": "51.30", "lon": "-1.59", "elev": "145", "bundesland": "England", "report_available": 1}, "03743": {"name": "Larkhill", "icao": "----", "lat": "51.12", "lon": "-1.49", "elev": "132", "bundesland": "England", "report_available": 1}, "03768": {"name": "Farnborough", "icao": "----", "lat": "51.17", "lon": "0.46", "elev": "65", "bundesland": "England", "report_available": 0}, "03772": {"name": "London", "icao": "EGLL", "lat": "51.29", "lon": "-0.27", "elev": "24", "bundesland": "", "report_available": 1}, "03776": {"name": "London/Gatwick", "icao": "EGKK", "lat": "51.09", "lon": "-0.11", "elev": "62", "bundesland": "England", "report_available": 0}, "03779": {"name": "London Weather Cent.", "icao": "EGRB", "lat": "51.31", "lon": "-0.06", "elev": "43", "bundesland": "England", "report_available": 0}, "03781": {"name": "Kenley", "icao": "----", "lat": "51.18", "lon": "-0.05", "elev": "170", "bundesland": "England", "report_available": 1}, "03797": {"name": "Manston", "icao": "EGMH", "lat": "51.21", "lon": "1.21", "elev": "44", "bundesland": "England", "report_available": 1}, "03803": {"name": "Scilly", "icao": "----", "lat": "49.55", "lon": "-6.18", "elev": "31", "bundesland": "", "report_available": 0}, "03808": {"name": "Camborne", "icao": "----", "lat": "50.13", "lon": "-5.20", "elev": "87", "bundesland": "", "report_available": 1}, "03809": {"name": "Culdrose", "icao": "EGDR", "lat": "50.05", "lon": "-5.15", "elev": "78", "bundesland": "", "report_available": 0}, "03817": {"name": "St. Mawgan", "icao": "EGDG", "lat": "50.26", "lon": "-5.00", "elev": "103", "bundesland": "England", "report_available": 0}, "03827": {"name": "Plymouth", "icao": "EGDB", "lat": "50.21", "lon": "-4.07", "elev": "50", "bundesland": "England", "report_available": 1}, "03839": {"name": "Exeter Apt", "icao": "EGTE", "lat": "50.44", "lon": "-3.25", "elev": "30", "bundesland": "England", "report_available": 1}, "03853": {"name": "Yeovilton", "icao": "----", "lat": "51.01", "lon": "-2.38", "elev": "23", "bundesland": "England", "report_available": 1}, "03862": {"name": "Bournemouth/Hurn", "icao": "EGHH", "lat": "50.47", "lon": "-1.50", "elev": "11", "bundesland": "", "report_available": 0}, "03865": {"name": "Southampton", "icao": "EGHI", "lat": "50.54", "lon": "-1.24", "elev": "9", "bundesland": "England", "report_available": 0}, "03866": {"name": "St.Catherine'S Point", "icao": "----", "lat": "50.35", "lon": "-1.18", "elev": "16", "bundesland": "", "report_available": 0}, "03882": {"name": "Herstmonceux", "icao": "----", "lat": "50.53", "lon": "0.19", "elev": "52", "bundesland": "", "report_available": 0}, "03890": {"name": "Oxford", "icao": "----", "lat": "51.45", "lon": "-1.16", "elev": "68", "bundesland": "England", "report_available": 0}, "03894": {"name": "Guernsey", "icao": "EGJB", "lat": "49.26", "lon": "-2.36", "elev": "101", "bundesland": "", "report_available": 1}, "03895": {"name": "Jersey-Airport", "icao": "EGJJ", "lat": "49.13", "lon": "-2.12", "elev": "84", "bundesland": "", "report_available": 1}, "03903": {"name": "St. Angelo", "icao": "EGAB", "lat": "54.24", "lon": "-7.39", "elev": "47", "bundesland": "Nordirland", "report_available": 0}, "03908": {"name": "Ballykelly", "icao": "EGQB", "lat": "55.04", "lon": "-7.01", "elev": "2", "bundesland": "Nordirland", "report_available": 0}, "03914": {"name": "Portrush", "icao": "----", "lat": "55.12", "lon": "-6.39", "elev": "8", "bundesland": "", "report_available": 0}, "03917": {"name": "Belfast", "icao": "EGAA", "lat": "54.39", "lon": "-6.13", "elev": "81", "bundesland": "Nordirland", "report_available": 1}, "03930": {"name": "Liverpool", "icao": "EGGP", "lat": "53.20", "lon": "-2.52", "elev": "26", "bundesland": "England", "report_available": 0}, "03953": {"name": "Valentia", "icao": "----", "lat": "51.56", "lon": "-10.14", "elev": "25", "bundesland": "County Kerry", "report_available": 1}, "03955": {"name": "Cork Airport", "icao": "EICK", "lat": "51.51", "lon": "-8.29", "elev": "153", "bundesland": "", "report_available": 1}, "03957": {"name": "Rosslare", "icao": "----", "lat": "52.15", "lon": "-6.20", "elev": "23", "bundesland": "", "report_available": 0}, "03958": {"name": "Coventry", "icao": "EGBE", "lat": "52.22", "lon": "-1.29", "elev": "82", "bundesland": "England", "report_available": 0}, "03960": {"name": "Kilkenny", "icao": "EIKL", "lat": "52.40", "lon": "-7.16", "elev": "63", "bundesland": "County Carlow", "report_available": 0}, "03961": {"name": "Carlow Oak Park", "icao": "----", "lat": "52.51", "lon": "-6.55", "elev": "61", "bundesland": "", "report_available": 0}, "03962": {"name": "Shannon", "icao": "EINN", "lat": "52.42", "lon": "-8.55", "elev": "14", "bundesland": "County Kilkenny", "report_available": 1}, "03969": {"name": "Dublin", "icao": "EIDW", "lat": "53.26", "lon": "-6.15", "elev": "68", "bundesland": "", "report_available": 1}, "03971": {"name": "Mullingar", "icao": "----", "lat": "53.32", "lon": "-7.22", "elev": "100", "bundesland": "County Meath", "report_available": 0}, "03976": {"name": "Belmullet", "icao": "----", "lat": "54.14", "lon": "-10.01", "elev": "9", "bundesland": "", "report_available": 1}, "03980": {"name": "Malin Head", "icao": "----", "lat": "55.22", "lon": "-7.20", "elev": "20", "bundesland": "", "report_available": 1}, "04018": {"name": "Keflavik", "icao": "BIKF", "lat": "63.58", "lon": "-22.36", "elev": "52", "bundesland": "Sveitarfélagið Ölfus", "report_available": 0}, "04030": {"name": "Reykjavik", "icao": "BIRK", "lat": "64.08", "lon": "-21.54", "elev": "54", "bundesland": "Skeiða- og Gnúpverjahreppur", "report_available": 1}, "04048": {"name": "Vestmannaeyjar", "icao": "BIVM", "lat": "63.24", "lon": "-20.17", "elev": "118", "bundesland": "", "report_available": 1}, "04063": {"name": "Akureyri", "icao": "BIAR", "lat": "65.41", "lon": "-18.05", "elev": "23", "bundesland": "Þingeyjarsveit", "report_available": 1}, "04072": {"name": "Fagurholsmyri", "icao": "----", "lat": "63.53", "lon": "-16.39", "elev": "46", "bundesland": "", "report_available": 0}, "04094": {"name": "Nupur", "icao": "----", "lat": "64.42", "lon": "-14.06", "elev": "25", "bundesland": "", "report_available": 0}, "04097": {"name": "Dalatangi", "icao": "----", "lat": "65.16", "lon": "-13.35", "elev": "9", "bundesland": "", "report_available": 1}, "04231": {"name": "Sondrestromfjord", "icao": "BGSF", "lat": "67.01", "lon": "-50.42", "elev": "50", "bundesland": "Qeqqata Kommunia", "report_available": 0}, "04250": {"name": "Godthab Nuuk", "icao": "----", "lat": "64.10", "lon": "-51.45", "elev": "80", "bundesland": "Kommuneqarfik Sermersooq", "report_available": 0}, "04270": {"name": "Narsarsuaq", "icao": "BGBW", "lat": "61.09", "lon": "-45.26", "elev": "4", "bundesland": "", "report_available": 0}, "04320": {"name": "Danmarkshavn", "icao": "BGDH", "lat": "76.46", "lon": "-18.40", "elev": "11", "bundesland": "", "report_available": 0}, "04330": {"name": "Daneborg", "icao": "BGDB", "lat": "74.18", "lon": "-20.13", "elev": "44", "bundesland": "", "report_available": 0}, "04339": {"name": "Scoresbysund", "icao": "BGSC", "lat": "70.29", "lon": "-21.58", "elev": "65", "bundesland": "", "report_available": 0}, "04360": {"name": "Tasiilaq", "icao": "BGAM", "lat": "65.36", "lon": "-37.38", "elev": "50", "bundesland": "", "report_available": 0}, "04361": {"name": "Kulusuk", "icao": "BGKK", "lat": "65.34", "lon": "-37.08", "elev": "35", "bundesland": "", "report_available": 0}, "06011": {"name": "Faroeer", "icao": "----", "lat": "62.01", "lon": "-6.46", "elev": "54", "bundesland": "", "report_available": 0}, "06030": {"name": "Alborg", "icao": "EKYT", "lat": "57.06", "lon": "9.52", "elev": "3", "bundesland": "Region Nordjylland", "report_available": 1}, "06041": {"name": "Skagen", "icao": "----", "lat": "57.46", "lon": "10.39", "elev": "3", "bundesland": "", "report_available": 0}, "06052": {"name": "Thyboron", "icao": "----", "lat": "56.43", "lon": "8.13", "elev": "2", "bundesland": "", "report_available": 0}, "06060": {"name": "Karup", "icao": "EKKA", "lat": "56.18", "lon": "9.07", "elev": "52", "bundesland": "Region Midtjylland", "report_available": 1}, "06062": {"name": "Skive", "icao": "EKSV", "lat": "56.33", "lon": "9.10", "elev": "23", "bundesland": "Region Midtjylland", "report_available": 0}, "06070": {"name": "Tirstrup", "icao": "EKAH", "lat": "56.18", "lon": "10.37", "elev": "25", "bundesland": "Region Midtjylland", "report_available": 1}, "06078": {"name": "Anholt", "icao": "----", "lat": "56.42", "lon": "11.33", "elev": "7", "bundesland": "Region Midtjylland", "report_available": 0}, "06080": {"name": "Esbjerg", "icao": "EKEB", "lat": "55.31", "lon": "8.33", "elev": "29", "bundesland": "Region Syddanmark", "report_available": 0}, "06104": {"name": "Billund", "icao": "EKBI", "lat": "55.44", "lon": "9.09", "elev": "70", "bundesland": "Region Syddanmark", "report_available": 0}, "06110": {"name": "Skrydstrup", "icao": "EKSP", "lat": "55.14", "lon": "9.16", "elev": "43", "bundesland": "Region Syddanmark", "report_available": 0}, "06119": {"name": "Kegnaes", "icao": "----", "lat": "54.51", "lon": "9.59", "elev": "17", "bundesland": "", "report_available": 0}, "06120": {"name": "Odense", "icao": "EKOD", "lat": "55.28", "lon": "10.20", "elev": "17", "bundesland": "Region Syddanmark", "report_available": 1}, "06141": {"name": "Abed", "icao": "----", "lat": "54.50", "lon": "11.20", "elev": "8", "bundesland": "Region Sjælland", "report_available": 0}, "06147": {"name": "Vindebaek Kyst", "icao": "----", "lat": "54.53", "lon": "12.11", "elev": "3", "bundesland": "Region Sjælland", "report_available": 0}, "06160": {"name": "Vaerloese", "icao": "EKVL", "lat": "55.46", "lon": "12.20", "elev": "18", "bundesland": "Region Hovedstaden", "report_available": 0}, "06169": {"name": "Gniben", "icao": "----", "lat": "56.01", "lon": "11.17", "elev": "14", "bundesland": "", "report_available": 0}, "06170": {"name": "Koebenhavn/Roskilde", "icao": "EKRK", "lat": "55.35", "lon": "12.08", "elev": "44", "bundesland": "Region Sjælland", "report_available": 0}, "06174": {"name": "Tesseboelle", "icao": "----", "lat": "55.24", "lon": "12.09", "elev": "21", "bundesland": "Region Sjælland", "report_available": 0}, "06180": {"name": "Kopenhagen", "icao": "EKCH", "lat": "55.38", "lon": "12.40", "elev": "5", "bundesland": "Region Hovedstaden", "report_available": 1}, "06190": {"name": "Roenne/Bornh.", "icao": "EKRN", "lat": "55.04", "lon": "14.45", "elev": "16", "bundesland": "Region Hovedstaden", "report_available": 0}, "06210": {"name": "Valkenburg", "icao": "EHVB", "lat": "52.11", "lon": "4.25", "elev": "0", "bundesland": "Südholland", "report_available": 1}, "06235": {"name": "Kooy", "icao": "EHKD", "lat": "52.55", "lon": "4.47", "elev": "0", "bundesland": "Nordholland", "report_available": 1}, "06240": {"name": "Amsterdam", "icao": "EHAM", "lat": "52.18", "lon": "4.46", "elev": "-4", "bundesland": "Nordholland", "report_available": 1}, "06242": {"name": "Vlieland", "icao": "EHVL", "lat": "53.15", "lon": "4.55", "elev": "11", "bundesland": "", "report_available": 0}, "06250": {"name": "Terschelling", "icao": "EHTS", "lat": "53.22", "lon": "5.13", "elev": "26", "bundesland": "Friesland", "report_available": 0}, "06260": {"name": "De Bilt", "icao": "EHDB", "lat": "52.06", "lon": "5.11", "elev": "2", "bundesland": "Utrecht", "report_available": 0}, "06270": {"name": "Leeuwarden", "icao": "EHLW", "lat": "53.13", "lon": "5.46", "elev": "1", "bundesland": "Friesland", "report_available": 1}, "06275": {"name": "Deelen", "icao": "EHDL", "lat": "52.04", "lon": "5.53", "elev": "48", "bundesland": "Gelderland", "report_available": 0}, "06279": {"name": "Hoogeveen", "icao": "EHHO", "lat": "52.44", "lon": "6.31", "elev": "12", "bundesland": "Drenthe", "report_available": 0}, "06280": {"name": "Groningen", "icao": "EHGG", "lat": "53.08", "lon": "6.35", "elev": "4", "bundesland": "Drenthe", "report_available": 0}, "06290": {"name": "Twenthe", "icao": "EHTW", "lat": "52.16", "lon": "6.54", "elev": "35", "bundesland": "Provinz Overijssel", "report_available": 1}, "06310": {"name": "Vlissingen", "icao": "----", "lat": "51.26", "lon": "3.36", "elev": "8", "bundesland": "", "report_available": 0}, "06330": {"name": "Hoek V.Holl.", "icao": "----", "lat": "51.59", "lon": "4.07", "elev": "12", "bundesland": "Südholland", "report_available": 0}, "06344": {"name": "Rotterdam", "icao": "EHRD", "lat": "51.57", "lon": "4.27", "elev": "-5", "bundesland": "Südholland", "report_available": 1}, "06350": {"name": "Gilze Rijen", "icao": "EHGR", "lat": "51.34", "lon": "4.56", "elev": "11", "bundesland": "Nordbrabant", "report_available": 0}, "06370": {"name": "Eindhoven", "icao": "EHEH", "lat": "51.27", "lon": "5.25", "elev": "23", "bundesland": "Nordbrabant", "report_available": 1}, "06375": {"name": "Volkel", "icao": "EHVK", "lat": "51.39", "lon": "5.42", "elev": "22", "bundesland": "Nordbrabant", "report_available": 1}, "06380": {"name": "Maastricht", "icao": "EHBK", "lat": "50.55", "lon": "5.47", "elev": "114", "bundesland": "Limburg", "report_available": 1}, "06407": {"name": "Oostende", "icao": "EBOS", "lat": "51.12", "lon": "2.52", "elev": "4", "bundesland": "Flämische Region", "report_available": 1}, "06431": {"name": "Gent", "icao": "----", "lat": "51.11", "lon": "3.49", "elev": "10", "bundesland": "Flämische Region", "report_available": 0}, "06449": {"name": "Charleroi", "icao": "EBCI", "lat": "50.28", "lon": "4.27", "elev": "187", "bundesland": "Wallonische Region", "report_available": 0}, "06450": {"name": "Antwerpen", "icao": "EBAW", "lat": "51.12", "lon": "4.28", "elev": "12", "bundesland": "Flämische Region", "report_available": 0}, "06451": {"name": "Bruessel", "icao": "EBBR", "lat": "50.54", "lon": "4.32", "elev": "55", "bundesland": "Flämische Region", "report_available": 0}, "06456": {"name": "Florennes", "icao": "EBFS", "lat": "50.14", "lon": "4.40", "elev": "279", "bundesland": "Wallonische Region", "report_available": 0}, "06458": {"name": "Beauvechain", "icao": "EBBE", "lat": "50.45", "lon": "4.46", "elev": "105", "bundesland": "Wallonische Region", "report_available": 0}, "06476": {"name": "St.Hubert", "icao": "EBSH", "lat": "50.02", "lon": "5.24", "elev": "563", "bundesland": "Wallonische Region", "report_available": 1}, "06478": {"name": "Bierset", "icao": "EBLG", "lat": "50.39", "lon": "5.27", "elev": "178", "bundesland": "Wallonische Region", "report_available": 0}, "06479": {"name": "Kleine Brogel", "icao": "EBBL", "lat": "51.10", "lon": "5.28", "elev": "55", "bundesland": "Flämische Region", "report_available": 0}, "06490": {"name": "Spa/La Sauveniere", "icao": "EBSP", "lat": "50.29", "lon": "5.55", "elev": "470", "bundesland": "Wallonische Region", "report_available": 0}, "06496": {"name": "Elsenborn", "icao": "EBLB", "lat": "50.28", "lon": "6.11", "elev": "564", "bundesland": "Wallonische Region", "report_available": 0}, "06590": {"name": "Luxemburg", "icao": "ELLX", "lat": "49.37", "lon": "6.13", "elev": "376", "bundesland": "Luxemburg", "report_available": 1}, "06601": {"name": "Basel", "icao": "----", "lat": "47.32", "lon": "7.35", "elev": "316", "bundesland": "Basel-Landschaft", "report_available": 0}, "06604": {"name": "Neuchatel", "icao": "LSGN", "lat": "47.00", "lon": "6.57", "elev": "485", "bundesland": "Neuenburg", "report_available": 0}, "06605": {"name": "Chasseral", "icao": "----", "lat": "47.08", "lon": "7.03", "elev": "1599", "bundesland": "Bern", "report_available": 0}, "06606": {"name": "Cressier", "icao": "----", "lat": "47.03", "lon": "7.04", "elev": "431", "bundesland": "Neuenburg", "report_available": 0}, "06609": {"name": "Moleson", "icao": "----", "lat": "46.33", "lon": "7.01", "elev": "1972", "bundesland": "Freiburg", "report_available": 0}, "06610": {"name": "Payerne", "icao": "----", "lat": "46.49", "lon": "6.56", "elev": "490", "bundesland": "Waadt", "report_available": 1}, "06612": {"name": "La Chaux De Fonds", "icao": "LSGC", "lat": "47.05", "lon": "6.48", "elev": "1018", "bundesland": "Neuenburg", "report_available": 0}, "06616": {"name": "Fahy", "icao": "----", "lat": "47.25", "lon": "6.56", "elev": "596", "bundesland": "Bourgogne-Franche-Comté", "report_available": 0}, "06619": {"name": "La Fretaz", "icao": "----", "lat": "46.50", "lon": "6.35", "elev": "1202", "bundesland": "Waadt", "report_available": 0}, "06620": {"name": "Schaffhausen", "icao": "LSPF", "lat": "47.41", "lon": "8.37", "elev": "437", "bundesland": "Schaffhausen", "report_available": 0}, "06621": {"name": "Guettingen", "icao": "----", "lat": "47.36", "lon": "9.17", "elev": "440", "bundesland": "Thurgau", "report_available": 0}, "06623": {"name": "Salen-Reutenen", "icao": "----", "lat": "47.39", "lon": "9.01", "elev": "718", "bundesland": "Thurgau", "report_available": 0}, "06624": {"name": "Hallau", "icao": "----", "lat": "47.42", "lon": "8.28", "elev": "419", "bundesland": "Schaffhausen", "report_available": 0}, "06625": {"name": "Fribourg Posieux", "icao": "----", "lat": "46.46", "lon": "7.07", "elev": "646", "bundesland": "Freiburg", "report_available": 0}, "06626": {"name": "Goesgen (Kkw)", "icao": "----", "lat": "47.22", "lon": "7.58", "elev": "380", "bundesland": "Solothurn", "report_available": 0}, "06628": {"name": "Plaffeien-Obersch.", "icao": "----", "lat": "46.45", "lon": "7.16", "elev": "1042", "bundesland": "Freiburg", "report_available": 0}, "06629": {"name": "Muehleberg / Stocker", "icao": "----", "lat": "46.57", "lon": "7.17", "elev": "775", "bundesland": "Bern", "report_available": 0}, "06630": {"name": "Bern", "icao": "LSZB", "lat": "46.55", "lon": "7.30", "elev": "510", "bundesland": "Bern", "report_available": 0}, "06631": {"name": "Bern-Liebefeld", "icao": "----", "lat": "46.59", "lon": "7.27", "elev": "553", "bundesland": "Bern", "report_available": 0}, "06632": {"name": "Grenchen", "icao": "----", "lat": "47.11", "lon": "7.25", "elev": "430", "bundesland": "Solothurn", "report_available": 0}, "06633": {"name": "Buchs-Suhr", "icao": "----", "lat": "47.23", "lon": "8.05", "elev": "387", "bundesland": "Aargau", "report_available": 0}, "06635": {"name": "Koppigen", "icao": "----", "lat": "47.07", "lon": "7.37", "elev": "484", "bundesland": "Bern", "report_available": 0}, "06636": {"name": "Muehleberg (Kkw)", "icao": "----", "lat": "46.58", "lon": "7.17", "elev": "480", "bundesland": "Bern", "report_available": 0}, "06637": {"name": "Meiringen", "icao": "----", "lat": "46.43", "lon": "8.10", "elev": "589", "bundesland": "Bern", "report_available": 0}, "06638": {"name": "Langnau I.E.", "icao": "----", "lat": "46.56", "lon": "7.49", "elev": "745", "bundesland": "Bern", "report_available": 0}, "06639": {"name": "Napf", "icao": "----", "lat": "47.00", "lon": "7.56", "elev": "1406", "bundesland": "Bern", "report_available": 0}, "06641": {"name": "Moehlin", "icao": "----", "lat": "47.34", "lon": "7.53", "elev": "344", "bundesland": "Aargau", "report_available": 0}, "06643": {"name": "Wynau", "icao": "----", "lat": "47.16", "lon": "7.47", "elev": "422", "bundesland": "Solothurn", "report_available": 0}, "06645": {"name": "Ruenenberg", "icao": "----", "lat": "47.26", "lon": "7.53", "elev": "611", "bundesland": "Basel-Landschaft", "report_available": 0}, "06646": {"name": "Beznau", "icao": "----", "lat": "47.34", "lon": "8.14", "elev": "326", "bundesland": "Aargau", "report_available": 0}, "06647": {"name": "Wuerenlingen", "icao": "----", "lat": "47.32", "lon": "8.14", "elev": "334", "bundesland": "Aargau", "report_available": 0}, "06648": {"name": "Egolzwil", "icao": "----", "lat": "47.11", "lon": "8.00", "elev": "521", "bundesland": "Kanton Luzern", "report_available": 0}, "06650": {"name": "Luzern", "icao": "----", "lat": "47.01", "lon": "8.18", "elev": "456", "bundesland": "Kanton Luzern", "report_available": 0}, "06651": {"name": "Schuepfheim", "icao": "----", "lat": "46.57", "lon": "8.01", "elev": "742", "bundesland": "Kanton Luzern", "report_available": 0}, "06655": {"name": "Engelberg", "icao": "----", "lat": "46.49", "lon": "8.25", "elev": "1036", "bundesland": "Obwalden", "report_available": 0}, "06657": {"name": "Giswil", "icao": "----", "lat": "46.50", "lon": "8.11", "elev": "471", "bundesland": "Obwalden", "report_available": 0}, "06659": {"name": "Pilatus", "icao": "----", "lat": "46.59", "lon": "8.15", "elev": "2106", "bundesland": "Nidwalden", "report_available": 0}, "06660": {"name": "Zuerich (Town/Ville)", "icao": "----", "lat": "47.23", "lon": "8.34", "elev": "556", "bundesland": "Zürich", "report_available": 0}, "06664": {"name": "Reckenholz", "icao": "----", "lat": "47.26", "lon": "8.31", "elev": "444", "bundesland": "Zürich", "report_available": 0}, "06666": {"name": "Leibstadt (Kkw)", "icao": "----", "lat": "47.36", "lon": "8.11", "elev": "341", "bundesland": "Aargau", "report_available": 0}, "06669": {"name": "Laegern", "icao": "----", "lat": "47.29", "lon": "8.24", "elev": "868", "bundesland": "Zürich", "report_available": 0}, "06670": {"name": "Zuerich", "icao": "LSZH", "lat": "47.29", "lon": "8.32", "elev": "436", "bundesland": "Zürich", "report_available": 1}, "06672": {"name": "Altdorf", "icao": "----", "lat": "46.52", "lon": "8.38", "elev": "449", "bundesland": "Uri", "report_available": 0}, "06673": {"name": "Waedenswl", "icao": "----", "lat": "47.13", "lon": "8.41", "elev": "463", "bundesland": "Zürich", "report_available": 0}, "06674": {"name": "Cham", "icao": "----", "lat": "47.11", "lon": "8.28", "elev": "443", "bundesland": "Zug", "report_available": 0}, "06675": {"name": "Einsiedeln", "icao": "----", "lat": "47.08", "lon": "8.46", "elev": "910", "bundesland": "Schwyz", "report_available": 0}, "06676": {"name": "Oberaegeri", "icao": "----", "lat": "47.08", "lon": "8.37", "elev": "724", "bundesland": "Zug", "report_available": 0}, "06678": {"name": "Bischofszell", "icao": "----", "lat": "47.30", "lon": "9.14", "elev": "470", "bundesland": "Thurgau", "report_available": 0}, "06679": {"name": "Taenikon", "icao": "----", "lat": "47.28", "lon": "8.54", "elev": "536", "bundesland": "Thurgau", "report_available": 0}, "06680": {"name": "Saentis", "icao": "----", "lat": "47.15", "lon": "9.20", "elev": "2502", "bundesland": "Appenzell Ausserrhoden", "report_available": 1}, "06681": {"name": "St.Gallen", "icao": "----", "lat": "47.26", "lon": "9.24", "elev": "779", "bundesland": "Sankt Gallen", "report_available": 0}, "06682": {"name": "Elm", "icao": "----", "lat": "46.55", "lon": "9.11", "elev": "958", "bundesland": "Glarus", "report_available": 0}, "06683": {"name": "Schmerikon", "icao": "----", "lat": "47.13", "lon": "8.56", "elev": "408", "bundesland": "Sankt Gallen", "report_available": 0}, "06685": {"name": "Glarus", "icao": "----", "lat": "47.02", "lon": "9.04", "elev": "515", "bundesland": "Glarus", "report_available": 0}, "06687": {"name": "Quinten", "icao": "----", "lat": "47.08", "lon": "9.13", "elev": "419", "bundesland": "Sankt Gallen", "report_available": 0}, "06688": {"name": "Crap Masegn", "icao": "----", "lat": "46.50", "lon": "9.11", "elev": "2480", "bundesland": "Graubünden", "report_available": 0}, "06689": {"name": "Hoernli", "icao": "----", "lat": "47.22", "lon": "8.56", "elev": "1144", "bundesland": "Zürich", "report_available": 0}, "06690": {"name": "Altenrhein", "icao": "LSZR", "lat": "47.29", "lon": "9.34", "elev": "398", "bundesland": "Sankt Gallen", "report_available": 0}, "06693": {"name": "Ebnat-Kappel", "icao": "----", "lat": "47.16", "lon": "9.07", "elev": "623", "bundesland": "Sankt Gallen", "report_available": 0}, "06700": {"name": "Genf", "icao": "LSGG", "lat": "46.15", "lon": "6.08", "elev": "420", "bundesland": "Genf", "report_available": 1}, "06702": {"name": "La Dole", "icao": "----", "lat": "46.25", "lon": "6.06", "elev": "1670", "bundesland": "Waadt", "report_available": 0}, "06704": {"name": "Biere", "icao": "----", "lat": "46.32", "lon": "6.20", "elev": "684", "bundesland": "Waadt", "report_available": 0}, "06705": {"name": "Changins", "icao": "----", "lat": "46.24", "lon": "6.14", "elev": "430", "bundesland": "Waadt", "report_available": 0}, "06710": {"name": "Courtelary", "icao": "----", "lat": "47.10", "lon": "7.05", "elev": "695", "bundesland": "Bern", "report_available": 0}, "06711": {"name": "Pully", "icao": "----", "lat": "46.31", "lon": "6.40", "elev": "461", "bundesland": "Waadt", "report_available": 0}, "06712": {"name": "Aigle", "icao": "----", "lat": "46.20", "lon": "6.55", "elev": "381", "bundesland": "Wallis", "report_available": 0}, "06717": {"name": "Grand-St-Bernard", "icao": "----", "lat": "45.52", "lon": "7.10", "elev": "2472", "bundesland": "Wallis", "report_available": 0}, "06720": {"name": "Sion", "icao": "LSGS", "lat": "46.13", "lon": "7.20", "elev": "482", "bundesland": "Wallis", "report_available": 1}, "06722": {"name": "Evolene-Villaz", "icao": "----", "lat": "46.07", "lon": "7.31", "elev": "1825", "bundesland": "Wallis", "report_available": 0}, "06724": {"name": "Montana", "icao": "----", "lat": "46.17", "lon": "7.27", "elev": "1423", "bundesland": "Wallis", "report_available": 0}, "06727": {"name": "Visp", "icao": "----", "lat": "46.18", "lon": "7.50", "elev": "639", "bundesland": "Wallis", "report_available": 0}, "06730": {"name": "Jungfraujoch", "icao": "----", "lat": "46.32", "lon": "7.59", "elev": "3571", "bundesland": "Wallis", "report_available": 0}, "06734": {"name": "Interlaken", "icao": "LSMI", "lat": "46.40", "lon": "7.52", "elev": "580", "bundesland": "Bern", "report_available": 0}, "06735": {"name": "Adelboden", "icao": "----", "lat": "46.30", "lon": "7.34", "elev": "1320", "bundesland": "Bern", "report_available": 0}, "06744": {"name": "Grimsel-Hospiz", "icao": "----", "lat": "46.34", "lon": "8.20", "elev": "1980", "bundesland": "Bern", "report_available": 0}, "06745": {"name": "Ulrichen", "icao": "----", "lat": "46.30", "lon": "8.19", "elev": "1346", "bundesland": "Wallis", "report_available": 0}, "06748": {"name": "Zermatt", "icao": "LSEZ", "lat": "46.02", "lon": "7.45", "elev": "1638", "bundesland": "Wallis", "report_available": 0}, "06750": {"name": "Guetsch", "icao": "----", "lat": "46.39", "lon": "8.37", "elev": "2287", "bundesland": "Uri", "report_available": 0}, "06751": {"name": "Robiei", "icao": "----", "lat": "46.27", "lon": "8.31", "elev": "1898", "bundesland": "Tessin", "report_available": 0}, "06753": {"name": "Piotta", "icao": "----", "lat": "46.31", "lon": "8.41", "elev": "1007", "bundesland": "Tessin", "report_available": 0}, "06756": {"name": "Comprovasco", "icao": "----", "lat": "46.28", "lon": "8.56", "elev": "575", "bundesland": "Tessin", "report_available": 0}, "06759": {"name": "Cimetta", "icao": "----", "lat": "46.12", "lon": "8.48", "elev": "1672", "bundesland": "Tessin", "report_available": 0}, "06760": {"name": "Locarno-Monti", "icao": "----", "lat": "46.10", "lon": "8.47", "elev": "367", "bundesland": "Tessin", "report_available": 0}, "06762": {"name": "Cadenazzo", "icao": "----", "lat": "46.09", "lon": "8.56", "elev": "203", "bundesland": "Tessin", "report_available": 0}, "06770": {"name": "Lugano", "icao": "----", "lat": "46.00", "lon": "8.58", "elev": "273", "bundesland": "Tessin", "report_available": 0}, "06771": {"name": "Stabio", "icao": "----", "lat": "45.50", "lon": "8.56", "elev": "353", "bundesland": "Lombardei", "report_available": 0}, "06775": {"name": "Lugano", "icao": "LSZA", "lat": "46.00", "lon": "8.54", "elev": "279", "bundesland": "Tessin", "report_available": 0}, "06778": {"name": "Buffalora", "icao": "----", "lat": "46.39", "lon": "10.16", "elev": "1968", "bundesland": "Graubünden", "report_available": 0}, "06780": {"name": "Weissfluhjoch", "icao": "----", "lat": "46.50", "lon": "9.49", "elev": "2691", "bundesland": "Graubünden", "report_available": 0}, "06782": {"name": "Disentis", "icao": "----", "lat": "46.42", "lon": "8.51", "elev": "1190", "bundesland": "Graubünden", "report_available": 0}, "06783": {"name": "San Bernardino", "icao": "----", "lat": "46.28", "lon": "9.11", "elev": "1639", "bundesland": "Graubünden", "report_available": 0}, "06784": {"name": "Davos", "icao": "----", "lat": "46.49", "lon": "9.51", "elev": "1590", "bundesland": "Graubünden", "report_available": 0}, "06786": {"name": "Chur", "icao": "----", "lat": "46.52", "lon": "9.32", "elev": "556", "bundesland": "Graubünden", "report_available": 0}, "06787": {"name": "Andeer", "icao": "----", "lat": "46.37", "lon": "9.25", "elev": "989", "bundesland": "Graubünden", "report_available": 0}, "06788": {"name": "Vicosoprano", "icao": "----", "lat": "46.21", "lon": "9.37", "elev": "1089", "bundesland": "Graubünden", "report_available": 0}, "06790": {"name": "Schiers", "icao": "----", "lat": "46.58", "lon": "9.40", "elev": "626", "bundesland": "Graubünden", "report_available": 0}, "06791": {"name": "Corvatsch", "icao": "----", "lat": "46.25", "lon": "9.49", "elev": "3315", "bundesland": "Graubünden", "report_available": 0}, "06792": {"name": "Samedan", "icao": "LSXM", "lat": "46.32", "lon": "9.53", "elev": "1709", "bundesland": "Graubünden", "report_available": 0}, "06793": {"name": "Valbella", "icao": "----", "lat": "46.46", "lon": "9.33", "elev": "1569", "bundesland": "Graubünden", "report_available": 0}, "06794": {"name": "Robbia", "icao": "----", "lat": "46.21", "lon": "10.04", "elev": "1078", "bundesland": "Graubünden", "report_available": 0}, "06795": {"name": "Piz Martegnas", "icao": "----", "lat": "46.35", "lon": "9.32", "elev": "2670", "bundesland": "Graubünden", "report_available": 0}, "06796": {"name": "Sta. Maria Val Muest", "icao": "----", "lat": "46.36", "lon": "10.26", "elev": "1383", "bundesland": "Graubünden", "report_available": 0}, "06798": {"name": "Scouls", "icao": "----", "lat": "46.48", "lon": "10.16", "elev": "1298", "bundesland": "Graubünden", "report_available": 0}, "06799": {"name": "Naluns / Schlivera", "icao": "----", "lat": "46.49", "lon": "10.16", "elev": "2400", "bundesland": "Graubünden", "report_available": 0}, "06990": {"name": "Vaduz Fl.", "icao": "----", "lat": "47.08", "lon": "9.31", "elev": "460", "bundesland": "Vaduz", "report_available": 1}, "07002": {"name": "Boulogne", "icao": "----", "lat": "50.44", "lon": "1.36", "elev": "70", "bundesland": "Hauts-de-France", "report_available": 0}, "07005": {"name": "Abbeville", "icao": "LFOI", "lat": "50.08", "lon": "1.50", "elev": "70", "bundesland": "Hauts-de-France", "report_available": 1}, "07015": {"name": "Lille", "icao": "LFQQ", "lat": "50.34", "lon": "3.06", "elev": "48", "bundesland": "Hauts-de-France", "report_available": 1}, "07017": {"name": "Cambrai", "icao": "LFQI", "lat": "50.13", "lon": "3.09", "elev": "77", "bundesland": "Hauts-de-France", "report_available": 0}, "07020": {"name": "La Hague", "icao": "----", "lat": "49.43", "lon": "-1.56", "elev": "3", "bundesland": "", "report_available": 1}, "07024": {"name": "Cherbourg", "icao": "LFRC", "lat": "49.39", "lon": "-1.28", "elev": "139", "bundesland": "", "report_available": 0}, "07027": {"name": "Caen", "icao": "LFRK", "lat": "49.11", "lon": "-0.27", "elev": "67", "bundesland": "Normandie", "report_available": 1}, "07028": {"name": "La Heve", "icao": "LFOH", "lat": "49.31", "lon": "0.04", "elev": "100", "bundesland": "Normandie", "report_available": 0}, "07037": {"name": "Rouen", "icao": "LFOP", "lat": "49.23", "lon": "1.11", "elev": "157", "bundesland": "Normandie", "report_available": 1}, "07038": {"name": "Evreux", "icao": "LFOE", "lat": "49.01", "lon": "1.13", "elev": "132", "bundesland": "Normandie", "report_available": 0}, "07040": {"name": "Dieppe", "icao": "----", "lat": "49.56", "lon": "1.06", "elev": "33", "bundesland": "Normandie", "report_available": 0}, "07055": {"name": "Beauvais", "icao": "LFOB", "lat": "49.28", "lon": "2.07", "elev": "106", "bundesland": "Hauts-de-France", "report_available": 0}, "07061": {"name": "Saint-Quentin", "icao": "LFOW", "lat": "49.49", "lon": "3.12", "elev": "98", "bundesland": "Hauts-de-France", "report_available": 0}, "07070": {"name": "Reims", "icao": "LFSR", "lat": "49.18", "lon": "4.02", "elev": "91", "bundesland": "Grand Est", "report_available": 0}, "07075": {"name": "Charleville", "icao": "LFQV", "lat": "49.47", "lon": "4.38", "elev": "149", "bundesland": "Grand Est", "report_available": 0}, "07090": {"name": "Metz", "icao": "LFSF", "lat": "49.05", "lon": "6.08", "elev": "190", "bundesland": "Grand Est", "report_available": 0}, "07093": {"name": "M.N.L.", "icao": "----", "lat": "48.59", "lon": "6.15", "elev": "260", "bundesland": "Grand Est", "report_available": 0}, "07100": {"name": "Ouessant", "icao": "LFEC", "lat": "48.28", "lon": "-5.08", "elev": "35", "bundesland": "", "report_available": 0}, "07110": {"name": "Brest", "icao": "LFRB", "lat": "48.27", "lon": "-4.25", "elev": "99", "bundesland": "Bretagne", "report_available": 1}, "07120": {"name": "St.Brieuc", "icao": "LFRT", "lat": "48.32", "lon": "-2.51", "elev": "136", "bundesland": "Normandie", "report_available": 1}, "07125": {"name": "Dinard Apt", "icao": "LFRD", "lat": "48.35", "lon": "-2.04", "elev": "58", "bundesland": "Bretagne", "report_available": 0}, "07130": {"name": "Rennes", "icao": "LFRN", "lat": "48.04", "lon": "-1.44", "elev": "37", "bundesland": "Pays de la Loire", "report_available": 1}, "07133": {"name": "Pointe Du Roc", "icao": "----", "lat": "48.50", "lon": "-1.37", "elev": "37", "bundesland": "Normandie", "report_available": 0}, "07139": {"name": "Alencon", "icao": "LFOF", "lat": "48.26", "lon": "0.06", "elev": "144", "bundesland": "Normandie", "report_available": 1}, "07143": {"name": "Chartres", "icao": "LFOR", "lat": "48.28", "lon": "1.31", "elev": "155", "bundesland": "Centre", "report_available": 0}, "07149": {"name": "Paris", "icao": "LFPO", "lat": "48.44", "lon": "2.24", "elev": "89", "bundesland": "Île-de-France", "report_available": 1}, "07150": {"name": "Paris-Le Bourget", "icao": "LFPB", "lat": "48.58", "lon": "2.26", "elev": "67", "bundesland": "Île-de-France", "report_available": 0}, "07157": {"name": "Paris Ch.D.Gaulle", "icao": "LFPG", "lat": "49.01", "lon": "2.32", "elev": "108", "bundesland": "Île-de-France", "report_available": 0}, "07166": {"name": "Vatry-Aero", "icao": "LFOK", "lat": "48.47", "lon": "4.10", "elev": "179", "bundesland": "Grand Est", "report_available": 0}, "07168": {"name": "Troyes", "icao": "LFQB", "lat": "48.20", "lon": "4.01", "elev": "112", "bundesland": "Grand Est", "report_available": 1}, "07169": {"name": "St. Dizier", "icao": "LFSI", "lat": "48.38", "lon": "4.54", "elev": "139", "bundesland": "Grand Est", "report_available": 0}, "07173": {"name": "Epinal", "icao": "----", "lat": "48.12", "lon": "6.26", "elev": "317", "bundesland": "Grand Est", "report_available": 0}, "07180": {"name": "Nancy", "icao": "LFSN", "lat": "48.41", "lon": "6.13", "elev": "229", "bundesland": "Grand Est", "report_available": 1}, "07181": {"name": "Nancy-Ochey", "icao": "----", "lat": "48.35", "lon": "5.58", "elev": "336", "bundesland": "Grand Est", "report_available": 0}, "07190": {"name": "Strassburg", "icao": "LFST", "lat": "48.33", "lon": "7.38", "elev": "153", "bundesland": "Grand Est", "report_available": 1}, "07197": {"name": "Colmar", "icao": "LFSC", "lat": "47.55", "lon": "7.24", "elev": "211", "bundesland": "Grand Est", "report_available": 0}, "07200": {"name": "Penmarch", "icao": "----", "lat": "47.48", "lon": "-4.22", "elev": "6", "bundesland": "Bretagne", "report_available": 0}, "07201": {"name": "Quimper", "icao": "LFRQ", "lat": "47.58", "lon": "-4.10", "elev": "92", "bundesland": "Bretagne", "report_available": 0}, "07205": {"name": "Lann Bihoue", "icao": "LFRH", "lat": "47.46", "lon": "-3.27", "elev": "42", "bundesland": "Bretagne", "report_available": 0}, "07222": {"name": "Nantes", "icao": "LFRS", "lat": "47.10", "lon": "-1.36", "elev": "27", "bundesland": "Pays de la Loire", "report_available": 1}, "07235": {"name": "Le Mans", "icao": "LFRM", "lat": "47.57", "lon": "0.12", "elev": "52", "bundesland": "Pays de la Loire", "report_available": 0}, "07240": {"name": "Tours", "icao": "LFOT", "lat": "47.27", "lon": "0.43", "elev": "108", "bundesland": "Centre", "report_available": 1}, "07249": {"name": "Orleans", "icao": "LFOJ", "lat": "47.59", "lon": "1.47", "elev": "125", "bundesland": "Centre", "report_available": 0}, "07255": {"name": "Bourges", "icao": "LFLD", "lat": "47.04", "lon": "2.22", "elev": "161", "bundesland": "Centre", "report_available": 1}, "07260": {"name": "Nevers", "icao": "LFQG", "lat": "47.00", "lon": "3.06", "elev": "175", "bundesland": "Bourgogne-Franche-Comté", "report_available": 0}, "07265": {"name": "Auxerre", "icao": "LFLA", "lat": "47.48", "lon": "3.33", "elev": "207", "bundesland": "Bourgogne-Franche-Comté", "report_available": 0}, "07280": {"name": "Dijon", "icao": "LFSD", "lat": "47.16", "lon": "5.05", "elev": "219", "bundesland": "Bourgogne-Franche-Comté", "report_available": 1}, "07288": {"name": "Besancon", "icao": "LFSA", "lat": "47.15", "lon": "5.59", "elev": "307", "bundesland": "Bourgogne-Franche-Comté", "report_available": 0}, "07299": {"name": "Basel-Mlh.", "icao": "LFSB", "lat": "47.36", "lon": "7.31", "elev": "270", "bundesland": "Grand Est", "report_available": 1}, "07306": {"name": "La Roche-Sur-Yon", "icao": "LFRI", "lat": "46.42", "lon": "-1.23", "elev": "90", "bundesland": "Nouvelle-Aquitaine", "report_available": 0}, "07315": {"name": "La Rochelle", "icao": "----", "lat": "46.09", "lon": "-1.09", "elev": "4", "bundesland": "Nouvelle-Aquitaine", "report_available": 0}, "07335": {"name": "Poitiers", "icao": "LFBI", "lat": "46.35", "lon": "0.18", "elev": "120", "bundesland": "Nouvelle-Aquitaine", "report_available": 1}, "07354": {"name": "Chateauroux", "icao": "LFLX", "lat": "46.52", "lon": "1.43", "elev": "155", "bundesland": "Centre", "report_available": 0}, "07379": {"name": "Saint-Yan.", "icao": "LFLN", "lat": "46.25", "lon": "4.01", "elev": "242", "bundesland": "Bourgogne-Franche-Comté", "report_available": 0}, "07385": {"name": "Macon", "icao": "LFLM", "lat": "46.18", "lon": "4.48", "elev": "216", "bundesland": "Bourgogne-Franche-Comté", "report_available": 0}, "07434": {"name": "Limoges", "icao": "LFBL", "lat": "45.52", "lon": "1.11", "elev": "402", "bundesland": "Nouvelle-Aquitaine", "report_available": 1}, "07460": {"name": "Clermont", "icao": "LFLC", "lat": "45.47", "lon": "3.10", "elev": "329", "bundesland": "Auvergne-Rhône-Alpes", "report_available": 1}, "07475": {"name": "St. Etienne", "icao": "LFMH", "lat": "45.32", "lon": "4.18", "elev": "402", "bundesland": "Auvergne-Rhône-Alpes", "report_available": 0}, "07480": {"name": "Lyon/Bron", "icao": "LFLY", "lat": "45.43", "lon": "4.57", "elev": "200", "bundesland": "Auvergne-Rhône-Alpes", "report_available": 0}, "07481": {"name": "Lyon/Satolas", "icao": "LFLL", "lat": "45.44", "lon": "5.05", "elev": "248", "bundesland": "Auvergne-Rhône-Alpes", "report_available": 1}, "07486": {"name": "Grenoble", "icao": "LFLS", "lat": "45.22", "lon": "5.20", "elev": "384", "bundesland": "Auvergne-Rhône-Alpes", "report_available": 0}, "07491": {"name": "Chambery - Aix", "icao": "LFLB", "lat": "45.39", "lon": "5.53", "elev": "235", "bundesland": "Auvergne-Rhône-Alpes", "report_available": 0}, "07497": {"name": "Bourg-St-M", "icao": "----", "lat": "45.37", "lon": "6.46", "elev": "865", "bundesland": "Auvergne-Rhône-Alpes", "report_available": 0}, "07510": {"name": "Bordeaux", "icao": "LFBD", "lat": "44.50", "lon": "-0.42", "elev": "49", "bundesland": "Nouvelle-Aquitaine", "report_available": 1}, "07558": {"name": "Millau", "icao": "LFCM", "lat": "44.07", "lon": "3.01", "elev": "715", "bundesland": "Okzitanien", "report_available": 1}, "07577": {"name": "Montelimar", "icao": "LFLQ", "lat": "44.35", "lon": "4.44", "elev": "73", "bundesland": "Auvergne-Rhône-Alpes", "report_available": 1}, "07579": {"name": "Orange", "icao": "LFMO", "lat": "44.08", "lon": "4.50", "elev": "53", "bundesland": "Provence-Alpes-Côte d'Azur", "report_available": 0}, "07588": {"name": "St.Auban", "icao": "LFMX", "lat": "44.04", "lon": "6.00", "elev": "457", "bundesland": "Provence-Alpes-Côte d'Azur", "report_available": 0}, "07593": {"name": "Briancon", "icao": "----", "lat": "44.55", "lon": "6.39", "elev": "1328", "bundesland": "Provence-Alpes-Côte d'Azur", "report_available": 0}, "07600": {"name": "Socoa", "icao": "----", "lat": "43.24", "lon": "-1.41", "elev": "24", "bundesland": "Nouvelle-Aquitaine", "report_available": 0}, "07602": {"name": "Biarritz", "icao": "LFBZ", "lat": "43.28", "lon": "-1.32", "elev": "69", "bundesland": "Nouvelle-Aquitaine", "report_available": 0}, "07610": {"name": "Pau", "icao": "----", "lat": "43.23", "lon": "-0.25", "elev": "185", "bundesland": "Okzitanien", "report_available": 0}, "07621": {"name": "Tarbes/Ossun", "icao": "LFBT", "lat": "43.11", "lon": "0.00", "elev": "364", "bundesland": "Okzitanien", "report_available": 1}, "07622": {"name": "Auch", "icao": "LFDH", "lat": "43.41", "lon": "0.36", "elev": "121", "bundesland": "Okzitanien", "report_available": 0}, "07630": {"name": "Toulouse", "icao": "LFBO", "lat": "43.38", "lon": "1.22", "elev": "152", "bundesland": "Okzitanien", "report_available": 1}, "07635": {"name": "Carcassonne", "icao": "LFMK", "lat": "43.13", "lon": "2.19", "elev": "126", "bundesland": "Okzitanien", "report_available": 0}, "07638": {"name": "Bezier-Vias", "icao": "----", "lat": "43.18", "lon": "3.24", "elev": "16", "bundesland": "Okzitanien", "report_available": 0}, "07643": {"name": "Montpellier", "icao": "LFMT", "lat": "43.35", "lon": "3.58", "elev": "3", "bundesland": "Okzitanien", "report_available": 1}, "07645": {"name": "Nimes/Courbessac", "icao": "LFME", "lat": "43.52", "lon": "4.24", "elev": "59", "bundesland": "Okzitanien", "report_available": 0}, "07648": {"name": "Salon", "icao": "LFMY", "lat": "43.36", "lon": "5.06", "elev": "59", "bundesland": "Provence-Alpes-Côte d'Azur", "report_available": 0}, "07650": {"name": "Marseille", "icao": "LFML", "lat": "43.27", "lon": "5.13", "elev": "5", "bundesland": "", "report_available": 1}, "07667": {"name": "Hyeres/Almanarre", "icao": "LFTH", "lat": "43.06", "lon": "6.09", "elev": "3", "bundesland": "Provence-Alpes-Côte d'Azur", "report_available": 0}, "07670": {"name": "Porquerolles", "icao": "----", "lat": "43.00", "lon": "6.14", "elev": "143", "bundesland": "Provence-Alpes-Côte d'Azur", "report_available": 0}, "07675": {"name": "Le Luc", "icao": "LFMC", "lat": "43.23", "lon": "6.23", "elev": "80", "bundesland": "Provence-Alpes-Côte d'Azur", "report_available": 0}, "07680": {"name": "St.Raphael", "icao": "LFTU", "lat": "43.25", "lon": "6.45", "elev": "2", "bundesland": "Provence-Alpes-Côte d'Azur", "report_available": 0}, "07684": {"name": "Cannes", "icao": "LFMD", "lat": "43.33", "lon": "6.57", "elev": "3", "bundesland": "Provence-Alpes-Côte d'Azur", "report_available": 0}, "07690": {"name": "Nizza", "icao": "LFMN", "lat": "43.39", "lon": "7.12", "elev": "4", "bundesland": "", "report_available": 1}, "07695": {"name": "Cap Ferrat", "icao": "----", "lat": "43.41", "lon": "7.20", "elev": "138", "bundesland": "Provence-Alpes-Côte d'Azur", "report_available": 0}, "07747": {"name": "Perpignan", "icao": "LFMP", "lat": "42.44", "lon": "2.52", "elev": "43", "bundesland": "Okzitanien", "report_available": 1}, "07754": {"name": "Calvi", "icao": "LFKC", "lat": "42.32", "lon": "8.48", "elev": "46", "bundesland": "Korsika", "report_available": 0}, "07761": {"name": "Ajaccio", "icao": "LFKJ", "lat": "41.55", "lon": "8.48", "elev": "6", "bundesland": "Korsika", "report_available": 1}, "07770": {"name": "Pertusato / Corsica", "icao": "----", "lat": "41.22", "lon": "9.11", "elev": "105", "bundesland": "Korsika", "report_available": 0}, "07780": {"name": "Figari", "icao": "LFKF", "lat": "41.30", "lon": "9.06", "elev": "26", "bundesland": "Korsika", "report_available": 0}, "07785": {"name": "Cap Corse", "icao": "----", "lat": "43.00", "lon": "9.22", "elev": "111", "bundesland": "Korsika", "report_available": 0}, "07790": {"name": "Bastia", "icao": "LFKB", "lat": "42.33", "lon": "9.29", "elev": "10", "bundesland": "Korsika", "report_available": 1}, "08001": {"name": "La Coruna", "icao": "LECO", "lat": "43.22", "lon": "-8.25", "elev": "58", "bundesland": "Galicien", "report_available": 1}, "08009": {"name": "Ribadeo", "icao": "----", "lat": "43.32", "lon": "-7.01", "elev": "25", "bundesland": "Asturien", "report_available": 0}, "08013": {"name": "Aviles/Div.Past", "icao": "----", "lat": "43.33", "lon": "-5.55", "elev": "10", "bundesland": "", "report_available": 0}, "08014": {"name": "Gijon", "icao": "----", "lat": "43.32", "lon": "-5.38", "elev": "3", "bundesland": "", "report_available": 0}, "08015": {"name": "Oviedo", "icao": "LEOV", "lat": "43.21", "lon": "-5.52", "elev": "335", "bundesland": "Kantabrien", "report_available": 1}, "08021": {"name": "Santander/Parayas", "icao": "LEXJ", "lat": "43.26", "lon": "-3.49", "elev": "6", "bundesland": "", "report_available": 0}, "08023": {"name": "Santander", "icao": "----", "lat": "43.29", "lon": "-3.48", "elev": "52", "bundesland": "", "report_available": 1}, "08025": {"name": "Bilbao", "icao": "LEBB", "lat": "43.18", "lon": "-2.56", "elev": "42", "bundesland": "Nouvelle-Aquitaine", "report_available": 0}, "08027": {"name": "San Sebastian/Iguel.", "icao": "----", "lat": "43.18", "lon": "-2.03", "elev": "258", "bundesland": "Autonome Gemeinschaft Baskenland", "report_available": 1}, "08029": {"name": "San Sebastian/Fuent.", "icao": "LESO", "lat": "43.21", "lon": "-1.48", "elev": "5", "bundesland": "Nouvelle-Aquitaine", "report_available": 0}, "08040": {"name": "Fisterra", "icao": "----", "lat": "42.56", "lon": "-9.17", "elev": "98", "bundesland": "Galicien", "report_available": 0}, "08042": {"name": "Santiago", "icao": "LEST", "lat": "42.54", "lon": "-8.26", "elev": "370", "bundesland": "Galicien", "report_available": 0}, "08045": {"name": "Vigo/Peinador", "icao": "LEVX", "lat": "42.13", "lon": "-8.38", "elev": "264", "bundesland": "Galicien", "report_available": 1}, "08055": {"name": "Leon", "icao": "LELN", "lat": "42.35", "lon": "-5.39", "elev": "926", "bundesland": "Kastilien und León", "report_available": 1}, "08075": {"name": "Burgos-Villafria", "icao": "----", "lat": "42.22", "lon": "-3.38", "elev": "894", "bundesland": "La Rioja", "report_available": 1}, "08080": {"name": "Vitoria Observatori", "icao": "----", "lat": "42.52", "lon": "-2.44", "elev": "513", "bundesland": "Navarra", "report_available": 0}, "08140": {"name": "Valladolid", "icao": "LEVD", "lat": "41.43", "lon": "-4.51", "elev": "849", "bundesland": "Kastilien und León", "report_available": 0}, "08141": {"name": "Valladolid", "icao": "----", "lat": "41.38", "lon": "-4.45", "elev": "735", "bundesland": "Kastilien und León", "report_available": 1}, "08160": {"name": "Zaragoza", "icao": "LEZG", "lat": "41.40", "lon": "-1.01", "elev": "263", "bundesland": "Aragonien", "report_available": 1}, "08171": {"name": "Lerida", "icao": "----", "lat": "41.37", "lon": "0.38", "elev": "203", "bundesland": "Katalonien", "report_available": 1}, "08175": {"name": "Reus", "icao": "LERS", "lat": "41.09", "lon": "1.10", "elev": "71", "bundesland": "Katalonien", "report_available": 0}, "08181": {"name": "Barcelona", "icao": "LEBL", "lat": "41.17", "lon": "2.04", "elev": "4", "bundesland": "Katalonien", "report_available": 1}, "08183": {"name": "Sabadell", "icao": "LELL", "lat": "41.31", "lon": "2.07", "elev": "148", "bundesland": "Katalonien", "report_available": 0}, "08184": {"name": "Gerona/Cost.Brava", "icao": "LEGE", "lat": "41.54", "lon": "2.46", "elev": "143", "bundesland": "Katalonien", "report_available": 1}, "08202": {"name": "Salamanca/Matacan", "icao": "LESA", "lat": "40.57", "lon": "-5.30", "elev": "793", "bundesland": "Kastilien und León", "report_available": 1}, "08221": {"name": "Madrid/Barajas", "icao": "LEMD", "lat": "40.27", "lon": "-3.33", "elev": "609", "bundesland": "Kastilien-La Mancha", "report_available": 1}, "08227": {"name": "Madrid", "icao": "LETO", "lat": "40.29", "lon": "-3.27", "elev": "607", "bundesland": "Kastilien-La Mancha", "report_available": 0}, "08272": {"name": "Toledo Buenavista", "icao": "----", "lat": "39.53", "lon": "-4.03", "elev": "451", "bundesland": "Kastilien-La Mancha", "report_available": 1}, "08280": {"name": "Albacete/Los Llanos", "icao": "LEAB", "lat": "38.57", "lon": "-1.51", "elev": "702", "bundesland": "Land Valencia", "report_available": 1}, "08284": {"name": "Valencia", "icao": "LEVC", "lat": "39.30", "lon": "-0.28", "elev": "69", "bundesland": "", "report_available": 1}, "08286": {"name": "Castellon De La Plan", "icao": "LECN", "lat": "39.57", "lon": "0.04", "elev": "36", "bundesland": "", "report_available": 0}, "08306": {"name": "Palma", "icao": "LEPA", "lat": "39.33", "lon": "2.44", "elev": "4", "bundesland": "Balearische Inseln", "report_available": 1}, "08307": {"name": "Pollensa", "icao": "----", "lat": "39.54", "lon": "3.06", "elev": "2", "bundesland": "", "report_available": 0}, "08314": {"name": "Menorca", "icao": "LEMH", "lat": "39.52", "lon": "4.14", "elev": "87", "bundesland": "Balearische Inseln", "report_available": 1}, "08330": {"name": "Badajoz/Talavera", "icao": "LEBZ", "lat": "38.53", "lon": "-6.49", "elev": "185", "bundesland": "Extremadura", "report_available": 1}, "08360": {"name": "Alicante", "icao": "LEAL", "lat": "38.17", "lon": "-0.33", "elev": "43", "bundesland": "", "report_available": 1}, "08370": {"name": "Javea/Yuntamien", "icao": "----", "lat": "38.47", "lon": "-0.10", "elev": "15", "bundesland": "Land Valencia", "report_available": 0}, "08373": {"name": "Ibiza", "icao": "LEIB", "lat": "38.52", "lon": "1.23", "elev": "17", "bundesland": "Balearische Inseln", "report_available": 1}, "08383": {"name": "Huelva", "icao": "----", "lat": "37.17", "lon": "-6.55", "elev": "19", "bundesland": "Andalusien", "report_available": 0}, "08390": {"name": "Sevilla", "icao": "LEZL", "lat": "37.22", "lon": "-6.00", "elev": "8", "bundesland": "Andalusien", "report_available": 0}, "08391": {"name": "Sevilla/San Pablo", "icao": "----", "lat": "37.25", "lon": "-5.53", "elev": "34", "bundesland": "Andalusien", "report_available": 1}, "08397": {"name": "Moron De La Frontera", "icao": "LEMO", "lat": "37.09", "lon": "-5.37", "elev": "87", "bundesland": "Andalusien", "report_available": 0}, "08410": {"name": "Cordoba", "icao": "LEBA", "lat": "37.51", "lon": "-4.51", "elev": "90", "bundesland": "Andalusien", "report_available": 1}, "08419": {"name": "Granada/Aeropuerto", "icao": "LEGR", "lat": "37.11", "lon": "-3.47", "elev": "567", "bundesland": "Andalusien", "report_available": 1}, "08430": {"name": "Murcia", "icao": "----", "lat": "38.00", "lon": "-1.10", "elev": "61", "bundesland": "Land Valencia", "report_available": 1}, "08432": {"name": "Aguilas", "icao": "----", "lat": "37.25", "lon": "-1.35", "elev": "33", "bundesland": "", "report_available": 0}, "08433": {"name": "Murcia/San Javier", "icao": "LELC", "lat": "37.47", "lon": "-0.48", "elev": "5", "bundesland": "", "report_available": 0}, "08451": {"name": "Jerez De La Frontera", "icao": "LEJR", "lat": "36.45", "lon": "-6.04", "elev": "27", "bundesland": "Andalusien", "report_available": 1}, "08482": {"name": "Malaga", "icao": "LEMG", "lat": "36.40", "lon": "-4.29", "elev": "16", "bundesland": "", "report_available": 1}, "08485": {"name": "Motril/Club Nautico", "icao": "----", "lat": "36.43", "lon": "-3.32", "elev": "3", "bundesland": "", "report_available": 0}, "08487": {"name": "Almeria", "icao": "LEAM", "lat": "36.51", "lon": "-2.23", "elev": "15", "bundesland": "", "report_available": 1}, "08495": {"name": "Gibraltar", "icao": "LXGB", "lat": "36.09", "lon": "-5.21", "elev": "5", "bundesland": "", "report_available": 0}, "08501": {"name": "Flores/Azoren", "icao": "LPFL", "lat": "39.27", "lon": "-31.08", "elev": "28", "bundesland": "", "report_available": 1}, "08505": {"name": "Azoren", "icao": "LPHR", "lat": "38.31", "lon": "-28.43", "elev": "40", "bundesland": "", "report_available": 1}, "08509": {"name": "Lajes/Azoren", "icao": "LPLA", "lat": "38.46", "lon": "-27.06", "elev": "52", "bundesland": "", "report_available": 1}, "08513": {"name": "Ponta Delgada", "icao": "----", "lat": "37.45", "lon": "-25.40", "elev": "35", "bundesland": "", "report_available": 0}, "08515": {"name": "Santa Maria", "icao": "LPAZ", "lat": "36.58", "lon": "-25.10", "elev": "100", "bundesland": "", "report_available": 1}, "08521": {"name": "Funchal", "icao": "LPFU", "lat": "32.41", "lon": "-16.46", "elev": "58", "bundesland": "", "report_available": 1}, "08532": {"name": "Sintra/Granja", "icao": "LPST", "lat": "38.50", "lon": "-9.20", "elev": "134", "bundesland": "Distrikt Santarém", "report_available": 0}, "08536": {"name": "Lissabon", "icao": "LPPT", "lat": "38.47", "lon": "-9.08", "elev": "114", "bundesland": "Distrikt Santarém", "report_available": 0}, "08538": {"name": "Sagres", "icao": "----", "lat": "37.00", "lon": "-8.57", "elev": "25", "bundesland": "", "report_available": 0}, "08540": {"name": "Monte Real", "icao": "LPMR", "lat": "39.50", "lon": "-8.53", "elev": "52", "bundesland": "Distrikt Castelo Branco", "report_available": 1}, "08541": {"name": "Sines (Montes Chaos)", "icao": "----", "lat": "37.57", "lon": "-8.50", "elev": "98", "bundesland": "Andalusien", "report_available": 1}, "08545": {"name": "Porto", "icao": "LPPR", "lat": "41.14", "lon": "-8.41", "elev": "69", "bundesland": "Distrikt Bragança", "report_available": 1}, "08546": {"name": "Porto/Serra Do Pilar", "icao": "----", "lat": "41.08", "lon": "-8.36", "elev": "93", "bundesland": "Distrikt Viseu", "report_available": 0}, "08547": {"name": "Aveiro", "icao": "----", "lat": "40.39", "lon": "-8.44", "elev": "8", "bundesland": "Distrikt Guarda", "report_available": 0}, "08548": {"name": "Coimbra/Cervache", "icao": "LPCO", "lat": "40.09", "lon": "-8.28", "elev": "179", "bundesland": "Distrikt Castelo Branco", "report_available": 1}, "08551": {"name": "Viana Do Castelo", "icao": "----", "lat": "41.38", "lon": "-8.48", "elev": "48", "bundesland": "Distrikt Bragança", "report_available": 0}, "08554": {"name": "Faro", "icao": "LPFR", "lat": "37.01", "lon": "-7.58", "elev": "7", "bundesland": "Andalusien", "report_available": 1}, "08562": {"name": "Beja", "icao": "----", "lat": "38.01", "lon": "-7.52", "elev": "246", "bundesland": "Extremadura", "report_available": 0}, "08567": {"name": "Vila Real", "icao": "LPVR", "lat": "41.16", "lon": "-7.43", "elev": "561", "bundesland": "Kastilien und León", "report_available": 1}, "08571": {"name": "Portalegre", "icao": "----", "lat": "39.17", "lon": "-7.25", "elev": "467", "bundesland": "Extremadura", "report_available": 1}, "08579": {"name": "Lisboa/Gago Coutinho", "icao": "----", "lat": "38.46", "lon": "-9.08", "elev": "104", "bundesland": "Distrikt Santarém", "report_available": 1}, "08589": {"name": "Cap Verden/Praia", "icao": "----", "lat": "14.54", "lon": "-23.31", "elev": "27", "bundesland": "", "report_available": 0}, "08594": {"name": "Sal", "icao": "GVAC", "lat": "16.44", "lon": "-22.57", "elev": "54", "bundesland": "", "report_available": 0}, "10004": {"name": "Ufs Tw Ems", "icao": "----", "lat": "54.10", "lon": "6.21", "elev": "0", "bundesland": "", "report_available": 1}, "10007": {"name": "Ufs Deutsche Bucht", "icao": "----", "lat": "54.10", "lon": "7.27", "elev": "0", "bundesland": "", "report_available": 1}, "10015": {"name": "Helgoland", "icao": "----", "lat": "54.175", "lon": "7.892", "elev": "4", "bundesland": "SH", "report_available": 1}, "10018": {"name": "Westerland", "icao": "EDXW", "lat": "54.55", "lon": "8.21", "elev": "22", "bundesland": "SH", "report_available": 0}, "10020": {"name": "List auf Sylt", "icao": "----", "lat": "55.011", "lon": "8.4125", "elev": "25", "bundesland": "SH", "report_available": 1}, "10022": {"name": "Leck", "icao": "EDXK", "lat": "54.7903", "lon": "8.9514", "elev": "7", "bundesland": "SH", "report_available": 1}, "10026": {"name": "Husum", "icao": "----", "lat": "54.31", "lon": "9.09", "elev": "28", "bundesland": "SH", "report_available": 0}, "10028": {"name": "Sankt Peter-Ording", "icao": "----", "lat": "54.3279", "lon": "8.6031", "elev": "5", "bundesland": "SH", "report_available": 1}, "10033": {"name": "Glücksburg-Meierwik", "icao": "ETGG", "lat": "54.8273", "lon": "9.5058", "elev": "12", "bundesland": "SH", "report_available": 1}, "10034": {"name": "Eggebek", "icao": "ETME", "lat": "54.38", "lon": "9.21", "elev": "20", "bundesland": "SH", "report_available": 0}, "10035": {"name": "Schleswig", "icao": "----", "lat": "54.528", "lon": "9.549", "elev": "43", "bundesland": "SH", "report_available": 1}, "10037": {"name": "Schleswig-Jagel", "icao": "ETNS", "lat": "54.457", "lon": "9.5203", "elev": "21", "bundesland": "SH", "report_available": 1}, "10038": {"name": "Hohn", "icao": "ETNH", "lat": "54.3162", "lon": "9.5385", "elev": "10", "bundesland": "SH", "report_available": 1}, "10042": {"name": "Schönhagen (Ostseebad)", "icao": "----", "lat": "54.641", "lon": "10.0238", "elev": "1", "bundesland": "SH", "report_available": 1}, "10044": {"name": "Leuchtturm Kiel", "icao": "----", "lat": "54.4996", "lon": "10.2737", "elev": "0", "bundesland": "SH", "report_available": 1}, "10046": {"name": "Kiel-Holtenau", "icao": "EDHK", "lat": "54.3776", "lon": "10.1424", "elev": "28", "bundesland": "SH", "report_available": 1}, "10055": {"name": "Fehmarn", "icao": "----", "lat": "54.5283", "lon": "11.0606", "elev": "3", "bundesland": "SH", "report_available": 1}, "10063": {"name": "Puttgarden", "icao": "----", "lat": "54.30", "lon": "11.13", "elev": "1", "bundesland": "SH", "report_available": 0}, "10091": {"name": "Arkona", "icao": "----", "lat": "54.6791", "lon": "13.4344", "elev": "42", "bundesland": "MV", "report_available": 1}, "10093": {"name": "Putbus", "icao": "----", "lat": "54.3643", "lon": "13.4771", "elev": "40", "bundesland": "MV", "report_available": 1}, "10097": {"name": "Greifswalder Oie", "icao": "----", "lat": "54.2437", "lon": "13.9102", "elev": "12", "bundesland": "MV", "report_available": 1}, "10113": {"name": "Norderney", "icao": "----", "lat": "53.7123", "lon": "7.1519", "elev": "12", "bundesland": "NI", "report_available": 1}, "10122": {"name": "Jever", "icao": "ETNJ", "lat": "53.32", "lon": "7.53", "elev": "7", "bundesland": "NI", "report_available": 0}, "10124": {"name": "Leuchtturm Alte Weser", "icao": "----", "lat": "53.8633", "lon": "8.1275", "elev": "0", "bundesland": "NI", "report_available": 1}, "10125": {"name": "Wilhelmshaven", "icao": "EDWI", "lat": "53.30", "lon": "8.03", "elev": "5", "bundesland": "NI", "report_available": 0}, "10126": {"name": "Wittmundhafen", "icao": "ETNT", "lat": "53.5503", "lon": "7.6672", "elev": "10", "bundesland": "NI", "report_available": 1}, "10129": {"name": "Bremerhaven", "icao": "----", "lat": "53.5332", "lon": "8.5761", "elev": "7", "bundesland": "HB", "report_available": 1}, "10130": {"name": "Elpersbüttel", "icao": "----", "lat": "54.0691", "lon": "9.0105", "elev": "3", "bundesland": "SH", "report_available": 1}, "10131": {"name": "Cuxhaven", "icao": "----", "lat": "53.8713", "lon": "8.706", "elev": "5", "bundesland": "NI", "report_available": 1}, "10136": {"name": "Nordholz (Flugplatz)", "icao": "ETMN", "lat": "53.7647", "lon": "8.6584", "elev": "26", "bundesland": "NI", "report_available": 1}, "10139": {"name": "Bremervörde", "icao": "----", "lat": "53.4451", "lon": "9.139", "elev": "11", "bundesland": "NI", "report_available": 1}, "10142": {"name": "Itzehoe", "icao": "ETHI", "lat": "53.9897", "lon": "9.5697", "elev": "20", "bundesland": "SH", "report_available": 1}, "10143": {"name": "Neumuenster", "icao": "----", "lat": "54.05", "lon": "9.56", "elev": "20", "bundesland": "SH", "report_available": 0}, "10146": {"name": "Quickborn", "icao": "----", "lat": "53.7331", "lon": "9.8776", "elev": "11", "bundesland": "SH", "report_available": 1}, "10147": {"name": "Hamburg-Fuhlsbüttel", "icao": "EDDH", "lat": "53.633", "lon": "9.988", "elev": "11", "bundesland": "HH", "report_available": 1}, "10150": {"name": "Dörnick", "icao": "----", "lat": "54.1654", "lon": "10.3519", "elev": "27", "bundesland": "SH", "report_available": 1}, "10152": {"name": "Pelzerhaken", "icao": "----", "lat": "54.0893", "lon": "10.8773", "elev": "2", "bundesland": "SH", "report_available": 1}, "10156": {"name": "Lübeck-Blankensee", "icao": "EDHL", "lat": "53.8025", "lon": "10.6989", "elev": "15", "bundesland": "SH", "report_available": 1}, "10161": {"name": "Boltenhagen", "icao": "----", "lat": "54.0027", "lon": "11.1908", "elev": "15", "bundesland": "MV", "report_available": 1}, "10162": {"name": "Schwerin", "icao": "----", "lat": "53.6424", "lon": "11.3871", "elev": "59", "bundesland": "MV", "report_available": 1}, "10168": {"name": "Goldberg", "icao": "----", "lat": "53.6058", "lon": "12.1034", "elev": "59", "bundesland": "MV", "report_available": 1}, "10170": {"name": "Rostock-Warnemünde", "icao": "----", "lat": "54.1803", "lon": "12.0808", "elev": "5", "bundesland": "MV", "report_available": 1}, "10172": {"name": "Laage (Flugplatz)", "icao": "ETNL", "lat": "53.9156", "lon": "12.279", "elev": "41", "bundesland": "MV", "report_available": 1}, "10177": {"name": "Teterow", "icao": "----", "lat": "53.46", "lon": "12.37", "elev": "50", "bundesland": "MV", "report_available": 0}, "10180": {"name": "Barth", "icao": "----", "lat": "54.3405", "lon": "12.7108", "elev": "3", "bundesland": "MV", "report_available": 1}, "10181": {"name": "Parow", "icao": "EDCP", "lat": "54.22", "lon": "13.05", "elev": "4", "bundesland": "MV", "report_available": 0}, "10184": {"name": "Greifswald", "icao": "----", "lat": "54.0967", "lon": "13.4056", "elev": "2", "bundesland": "MV", "report_available": 1}, "10193": {"name": "Ueckermünde", "icao": "----", "lat": "53.7445", "lon": "14.0698", "elev": "1", "bundesland": "MV", "report_available": 1}, "10200": {"name": "Emden", "icao": "----", "lat": "53.3881", "lon": "7.2287", "elev": "0", "bundesland": "NI", "report_available": 1}, "10203": {"name": "Emden", "icao": "----", "lat": "53.21", "lon": "7.12", "elev": "5", "bundesland": "NI", "report_available": 0}, "10210": {"name": "Friesoythe-Altenoythe", "icao": "----", "lat": "53.0643", "lon": "7.902", "elev": "6", "bundesland": "NI", "report_available": 1}, "10215": {"name": "Oldenburg", "icao": "EDWH", "lat": "53.11", "lon": "8.10", "elev": "11", "bundesland": "NI", "report_available": 0}, "10218": {"name": "Ahlhorn", "icao": "ETNA", "lat": "52.53", "lon": "8.14", "elev": "49", "bundesland": "NI", "report_available": 0}, "10224": {"name": "Bremen", "icao": "EDDW", "lat": "53.0451", "lon": "8.7981", "elev": "4", "bundesland": "HB", "report_available": 1}, "10234": {"name": "Rotenburg", "icao": "ETGQ", "lat": "53.08", "lon": "9.21", "elev": "34", "bundesland": "NI", "report_available": 0}, "10235": {"name": "Soltau", "icao": "----", "lat": "52.9604", "lon": "9.793", "elev": "75", "bundesland": "NI", "report_available": 1}, "10238": {"name": "Bergen", "icao": "ETGB", "lat": "52.8152", "lon": "9.9248", "elev": "69", "bundesland": "NI", "report_available": 1}, "10246": {"name": "Faßberg", "icao": "ETHS", "lat": "52.9157", "lon": "10.1885", "elev": "76", "bundesland": "NI", "report_available": 1}, "10249": {"name": "Boizenburg", "icao": "----", "lat": "53.3911", "lon": "10.6878", "elev": "45", "bundesland": "MV", "report_available": 1}, "10253": {"name": "Lüchow", "icao": "----", "lat": "52.9724", "lon": "11.1374", "elev": "16", "bundesland": "NI", "report_available": 1}, "10261": {"name": "Seehausen", "icao": "----", "lat": "52.8911", "lon": "11.7297", "elev": "21", "bundesland": "ST", "report_available": 1}, "10264": {"name": "Marnitz", "icao": "----", "lat": "53.3222", "lon": "11.9321", "elev": "81", "bundesland": "MV", "report_available": 1}, "10267": {"name": "Kyritz", "icao": "----", "lat": "52.9362", "lon": "12.4093", "elev": "40", "bundesland": "BB", "report_available": 1}, "10268": {"name": "Waren (Müritz)", "icao": "----", "lat": "53.5196", "lon": "12.6654", "elev": "73", "bundesland": "MV", "report_available": 1}, "10270": {"name": "Neuruppin", "icao": "----", "lat": "52.54", "lon": "12.49", "elev": "38", "bundesland": "BB", "report_available": 0}, "10271": {"name": "Neuruppin-Alt Ruppin", "icao": "----", "lat": "52.9437", "lon": "12.8518", "elev": "50", "bundesland": "BB", "report_available": 1}, "10272": {"name": "Wittstock", "icao": "ETGW", "lat": "53.11", "lon": "12.31", "elev": "72", "bundesland": "BB", "report_available": 0}, "10273": {"name": "Basepohl", "icao": "EDCJ", "lat": "53.44", "lon": "12.56", "elev": "53", "bundesland": "MV", "report_available": 0}, "10277": {"name": "Neuglobsow", "icao": "----", "lat": "53.09", "lon": "13.02", "elev": "62", "bundesland": "BB", "report_available": 0}, "10280": {"name": "Neubrandenburg", "icao": "----", "lat": "53.33", "lon": "13.12", "elev": "81", "bundesland": "MV", "report_available": 0}, "10281": {"name": "Trollenhagen", "icao": "ETNU", "lat": "53.5998", "lon": "13.3039", "elev": "68", "bundesland": "MV", "report_available": 1}, "10282": {"name": "Feldberg/Mecklenburg", "icao": "----", "lat": "53.3176", "lon": "13.4175", "elev": "115", "bundesland": "MV", "report_available": 1}, "10289": {"name": "Grünow", "icao": "----", "lat": "53.3154", "lon": "13.9339", "elev": "56", "bundesland": "BB", "report_available": 1}, "10291": {"name": "Angermünde", "icao": "----", "lat": "53.0316", "lon": "13.9908", "elev": "54", "bundesland": "BB", "report_available": 1}, "10303": {"name": "Lingen-Baccum", "icao": "----", "lat": "52.5126", "lon": "7.4131", "elev": "40", "bundesland": "NI", "report_available": 0}, "10306": {"name": "Rheine-Bentlage", "icao": "ETHE", "lat": "52.18", "lon": "7.23", "elev": "40", "bundesland": "NW", "report_available": 0}, "10308": {"name": "Nordhorn", "icao": "----", "lat": "52.33", "lon": "7.10", "elev": "24", "bundesland": "NI", "report_available": 0}, "10309": {"name": "Ahaus", "icao": "----", "lat": "52.0813", "lon": "6.9409", "elev": "46", "bundesland": "NW", "report_available": 1}, "10312": {"name": "Belm", "icao": "----", "lat": "52.317", "lon": "8.1694", "elev": "103", "bundesland": "NI", "report_available": 1}, "10314": {"name": "Hopsten", "icao": "ETNP", "lat": "52.20", "lon": "7.33", "elev": "39", "bundesland": "NW", "report_available": 0}, "10315": {"name": "Münster/Osnabrück", "icao": "EDDG", "lat": "52.1344", "lon": "7.6969", "elev": "48", "bundesland": "NW", "report_available": 1}, "10317": {"name": "Osnabrueck", "icao": "----", "lat": "52.15", "lon": "8.03", "elev": "95", "bundesland": "NI", "report_available": 0}, "10320": {"name": "Guetersloh", "icao": "ETUO", "lat": "51.55", "lon": "8.18", "elev": "72", "bundesland": "NW", "report_available": 0}, "10321": {"name": "Diepholz", "icao": "ETND", "lat": "52.5881", "lon": "8.3424", "elev": "38", "bundesland": "NI", "report_available": 1}, "10324": {"name": "Minden", "icao": "----", "lat": "52.19", "lon": "8.51", "elev": "59", "bundesland": "NW", "report_available": 0}, "10325": {"name": "Salzuflen, Bad", "icao": "----", "lat": "52.1042", "lon": "8.7521", "elev": "135", "bundesland": "NW", "report_available": 1}, "10326": {"name": "Bielefeld", "icao": "EDLI", "lat": "51.58", "lon": "8.33", "elev": "138", "bundesland": "NW", "report_available": 0}, "10334": {"name": "Wunstorf", "icao": "ETNW", "lat": "52.4626", "lon": "9.4245", "elev": "49", "bundesland": "NI", "report_available": 1}, "10335": {"name": "Bückeburg (Flugplatz)", "icao": "ETHB", "lat": "52.2817", "lon": "9.089", "elev": "68", "bundesland": "NI", "report_available": 1}, "10338": {"name": "Hannover", "icao": "EDDV", "lat": "52.4644", "lon": "9.6779", "elev": "55", "bundesland": "NI", "report_available": 1}, "10343": {"name": "Celle (Flugplatz)", "icao": "ETHC", "lat": "52.5959", "lon": "10.0296", "elev": "45", "bundesland": "NI", "report_available": 1}, "10348": {"name": "Braunschweig", "icao": "----", "lat": "52.2915", "lon": "10.4464", "elev": "81", "bundesland": "NI", "report_available": 1}, "10356": {"name": "Ummendorf", "icao": "----", "lat": "52.1601", "lon": "11.1759", "elev": "159", "bundesland": "ST", "report_available": 1}, "10359": {"name": "Gardelegen", "icao": "----", "lat": "52.5129", "lon": "11.3942", "elev": "47", "bundesland": "ST", "report_available": 1}, "10361": {"name": "Magdeburg", "icao": "EDBM", "lat": "52.1029", "lon": "11.5827", "elev": "79", "bundesland": "ST", "report_available": 1}, "10365": {"name": "Genthin", "icao": "----", "lat": "52.3875", "lon": "12.1602", "elev": "35", "bundesland": "ST", "report_available": 1}, "10368": {"name": "Wiesenburg", "icao": "----", "lat": "52.1206", "lon": "12.4586", "elev": "187", "bundesland": "BB", "report_available": 1}, "10376": {"name": "Baruth", "icao": "----", "lat": "52.0613", "lon": "13.4997", "elev": "55", "bundesland": "BB", "report_available": 1}, "10379": {"name": "Potsdam", "icao": "----", "lat": "52.381", "lon": "13.062", "elev": "81", "bundesland": "BB", "report_available": 1}, "10381": {"name": "Berlin-Dahlem (FU)", "icao": "----", "lat": "52.454", "lon": "13.302", "elev": "51", "bundesland": "BE", "report_available": 1}, "10382": {"name": "Berlin-Tegel", "icao": "EDDT", "lat": "52.34", "lon": "13.19", "elev": "37", "bundesland": "BE", "report_available": 1}, "10384": {"name": "Berlin-Tempelhof", "icao": "EDDI", "lat": "52.4676", "lon": "13.402", "elev": "48", "bundesland": "BE", "report_available": 1}, "10385": {"name": "Berlin Brandenburg", "icao": "EDDB", "lat": "52.3807", "lon": "13.5306", "elev": "46", "bundesland": "BB", "report_available": 1}, "10389": {"name": "Heidenheim/Brenz (Ph)", "icao": "----", "lat": "48.683", "lon": "10.167", "elev": "570", "bundesland": "BW", "report_available": 0}, "10393": {"name": "Lindenberg", "icao": "----", "lat": "52.209", "lon": "14.118", "elev": "98", "bundesland": "BB", "report_available": 1}, "10396": {"name": "Manschnow", "icao": "----", "lat": "52.5468", "lon": "14.5453", "elev": "12", "bundesland": "BB", "report_available": 1}, "10400": {"name": "Düsseldorf", "icao": "EDDL", "lat": "51.296", "lon": "6.7686", "elev": "37", "bundesland": "NW", "report_available": 1}, "10401": {"name": "Brueggen", "icao": "ETUR", "lat": "51.12", "lon": "6.08", "elev": "73", "bundesland": "NW", "report_available": 0}, "10403": {"name": "Moenchengladbach", "icao": "EDLN", "lat": "51.14", "lon": "6.30", "elev": "37", "bundesland": "NW", "report_available": 0}, "10404": {"name": "Kalkar", "icao": "ETGY", "lat": "51.44", "lon": "6.16", "elev": "27", "bundesland": "NW", "report_available": 0}, "10405": {"name": "Niederrhein", "icao": "EDLV", "lat": "51.36", "lon": "6.09", "elev": "32", "bundesland": "NW", "report_available": 0}, "10406": {"name": "Bocholt", "icao": "----", "lat": "51.50", "lon": "6.32", "elev": "21", "bundesland": "NW", "report_available": 0}, "10410": {"name": "Essen-Bredeney", "icao": "----", "lat": "51.4041", "lon": "6.9677", "elev": "150", "bundesland": "NW", "report_available": 1}, "10416": {"name": "Dortmund", "icao": "EDLW", "lat": "51.31", "lon": "7.37", "elev": "127", "bundesland": "NW", "report_available": 0}, "10418": {"name": "Lüdenscheid", "icao": "----", "lat": "51.2452", "lon": "7.6425", "elev": "387", "bundesland": "NW", "report_available": 1}, "10424": {"name": "Werl", "icao": "----", "lat": "51.5763", "lon": "7.8879", "elev": "85", "bundesland": "NW", "report_available": 1}, "10426": {"name": "Paderborn", "icao": "EDLP", "lat": "51.37", "lon": "8.37", "elev": "213", "bundesland": "NW", "report_available": 0}, "10427": {"name": "Kahler Asten", "icao": "----", "lat": "51.1803", "lon": "8.4891", "elev": "839", "bundesland": "NW", "report_available": 1},