{"01001": {"icao": "ENJA", "report_available": 0, "name": "Jan Mayen", "lat": "70.56", "lon": "-8.40", "elev": "10", "bundesland": ""}, "01008": {"icao": "ENSB", "report_available": 1, "name": "Svalbard", "lat": "78.15", "lon": "15.28", "elev": "29", "bundesland": ""}, "01025": {"icao": "----", "report_available": 1, "name": "Tromsoe", "lat": "69.41", "lon": "18.55", "elev": "10", "bundesland": ""}, "01028": {"icao": "ENBJ", "report_available": 1, "name": "Bjornoya", "lat": "74.31", "lon": "19.01", "elev": "16", "bundesland": ""}, "01049": {"icao": "ENAT", "report_available": 1, "name": "Alta Lufthavn", "lat": "69.59", "lon": "23.22", "elev": "3", "bundesland": ""}, "01052": {"icao": "ENHF", "report_available": 1, "name": "Hammerfest", "lat": "70.40", "lon": "23.40", "elev": "81", "bundesland": ""}, "01059": {"icao": "ENNA", "report_available": 0, "name": "Banak/Lakselv (Afb)", "lat": "70.04", "lon": "24.59", "elev": "8", "bundesland": ""}, "01089": {"icao": "ENKR", "report_available": 1, "name": "Kirkenes", "lat": "69.44", "lon": "29.54", "elev": "91", "bundesland": ""}, "01092": {"icao": "----", "report_available": 0, "name": "Makkaur Fyr", "lat": "70.43", "lon": "30.04", "elev": "9", "bundesland": ""}, "01112": {"icao": "ENBN", "report_available": 0, "name": "Bronnoysund/Bronnoy", "lat": "65.27", "lon": "12.13", "elev": "8", "bundesland": ""}, "01149": {"icao": "----", "report_available": 0, "name": "Wuppertal", "lat": "51.253", "lon": "7.216", "elev": "327", "bundesland": "NW"}, "01152": {"icao": "ENBO", "report_available": 1, "name": "Gevelsberg-Oberbröking", "lat": "51.333", "lon": "7.341", "elev": "203", "bundesland": "NW"}, "01180": {"icao": "----", "report_available": 1, "name": "Borken in Westfalen", "lat": "51.873", "lon": "6.886", "elev": "47", "bundesland": "NW"}, "01194": {"icao": "----", "report_available": 0, "name": "Mönchengladbach-Hilderath", "lat": "51.131", "lon": "6.361", "elev": "76", "bundesland": "NW"}, "01210": {"icao": "ENAL", "report_available": 1, "name": "Alesund Airp", "lat": "62.34", "lon": "6.07", "elev": "22", "bundesland": ""}, "01215": {"icao": "----", "report_available": 0, "name": "Hjelvig (Myrbo)", "lat": "62.37", "lon": "7.14", "elev": "35", "bundesland": ""}, "01223": {"icao": "ENKB", "report_available": 1, "name": "Kristiansund", "lat": "63.07", "lon": "7.50", "elev": "44", "bundesland": ""}, "01238": {"icao": "----", "report_available": 1, "name": "Fokstua 2", "lat": "62.07", "lon": "9.17", "elev": "973", "bundesland": ""}, "01241": {"icao": "ENOL", "report_available": 1, "name": "Orland", "lat": "63.42", "lon": "9.36", "elev": "7", "bundesland": ""}, "01271": {"icao": "ENVA", "report_available": 1, "name": "Trondheim", "lat": "63.28", "lon": "10.55", "elev": "17", "bundesland": ""}, "01290": {"icao": "ENNM", "report_available": 0, "name": "Namsos", "lat": "64.28", "lon": "11.35", "elev": "2", "bundesland": ""}, "01311": {"icao": "ENBR", "report_available": 1, "name": "Bergen", "lat": "60.18", "lon": "5.13", "elev": "50", "bundesland": ""}, "01338": {"icao": "----", "report_available": 1, "name": "Vangsnes", "lat": "61.10", "lon": "6.39", "elev": "51", "bundesland": ""}, "01347": {"icao": "ENSG", "report_available": 0, "name": "Sogndal", "lat": "61.09", "lon": "7.08", "elev": "497", "bundesland": ""}, "01366": {"icao": "----", "report_available": 0, "name": "Sognefjell", "lat": "61.34", "lon": "8.00", "elev": "1415", "bundesland": ""}, "01368": {"icao": "ENFG", "report_available": 1, "name": "Fagernes", "lat": "61.00", "lon": "9.18", "elev": "822", "bundesland": ""}, "01380": {"icao": "----", "report_available": 0, "name": "Venabu", "lat": "61.39", "lon": "10.07", "elev": "940", "bundesland": ""}, "01384": {"icao": "ENGM", "report_available": 1, "name": "Oslo/Gardermoen", "lat": "60.12", "lon": "11.06", "elev": "201", "bundesland": ""}, "01385": {"icao": "----", "report_available": 1, "name": "Hamar-Stavsberg", "lat": "60.49", "lon": "11.04", "elev": "221", "bundesland": ""}, "01403": {"icao": "----", "report_available": 1, "name": "Utsira Fyr", "lat": "59.19", "lon": "4.52", "elev": "55", "bundesland": ""}, "01415": {"icao": "ENZV", "report_available": 1, "name": "Glücksburg-Meierwik", "lat": "54.8273", "lon": "9.5058", "elev": "12", "bundesland": "SH"}, "01452": {"icao": "ENCN", "report_available": 1, "name": "Freiburg/Elbe", "lat": "53.828", "lon": "9.249", "elev": "2", "bundesland": "NI"}, "01475": {"icao": "ENSN", "report_available": 0, "name": "Mittelnkirchen-Hohenfelde", "lat": "53.553", "lon": "9.61", "elev": "2", "bundesland": "NI"}, "01481": {"icao": "----", "report_available": 0, "name": "Melsom", "lat": "59.14", "lon": "10.21", "elev": "26", "bundesland": ""}, "01488": {"icao": "ENFB", "report_available": 0, "name": "Worpswede-Hüttenbusch", "lat": "53.276", "lon": "8.986", "elev": "7", "bundesland": "NI"}, "01492": {"icao": "----", "report_available": 1, "name": "Oslo-Blindern", "lat": "59.56", "lon": "10.43", "elev": "94", "bundesland": ""}, "01493": {"icao": "----", "report_available": 0, "name": "Sarpsborg", "lat": "59.17", "lon": "11.07", "elev": "54", "bundesland": ""}, "01494": {"icao": "ENRY", "report_available": 0, "name": "Rygge", "lat": "59.23", "lon": "10.47", "elev": "53", "bundesland": ""}, "02049": {"icao": "ESNG", "report_available": 0, "name": "Gallivare Apt", "lat": "67.09", "lon": "20.39", "elev": "359", "bundesland": ""}, "02086": {"icao": "----", "report_available": 0, "name": "Lainio", "lat": "67.46", "lon": "22.21", "elev": "315", "bundesland": ""}, "02096": {"icao": "----", "report_available": 0, "name": "Pajala", "lat": "67.12", "lon": "23.23", "elev": "165", "bundesland": ""}, "02120": {"icao": "----", "report_available": 0, "name": "Kvikkjokk", "lat": "66.57", "lon": "17.44", "elev": "320", "bundesland": ""}, "02128": {"icao": "ESPD", "report_available": 0, "name": "Gunnarn", "lat": "64.58", "lon": "17.42", "elev": "278", "bundesland": ""}, "02186": {"icao": "ESPA", "report_available": 1, "name": "Lulea", "lat": "65.33", "lon": "22.08", "elev": "17", "bundesland": ""}, "02196": {"icao": "----", "report_available": 0, "name": "Haparanda", "lat": "65.50", "lon": "24.09", "elev": "5", "bundesland": ""}, "02226": {"icao": "ESPC", "report_available": 1, "name": "Weilerswist-Lommersum", "lat": "50.712", "lon": "6.791", "elev": "147", "bundesland": "NW"}, "02267": {"icao": "----", "report_available": 0, "name": "Ornskoldsvik", "lat": "63.18", "lon": "18.41", "elev": "24", "bundesland": ""}, "02284": {"icao": "----", "report_available": 0, "name": "Jaernaesklubb", "lat": "63.26", "lon": "19.41", "elev": "6", "bundesland": ""}, "02286": {"icao": "ESNU", "report_available": 0, "name": "Umea", "lat": "63.48", "lon": "20.17", "elev": "7", "bundesland": ""}, "02293": {"icao": "ESNS", "report_available": 0, "name": "Skelleftehamn", "lat": "64.38", "lon": "21.05", "elev": "46", "bundesland": ""}, "02324": {"icao": "ESND", "report_available": 0, "name": "Sveg", "lat": "62.02", "lon": "14.22", "elev": "360", "bundesland": ""}, "02355": {"icao": "----", "report_available": 1, "name": "Kuggoeren Amos", "lat": "61.42", "lon": "17.31", "elev": "9", "bundesland": ""}, "02366": {"icao": "ESNN", "report_available": 1, "name": "Timra/Midlanda", "lat": "62.31", "lon": "17.27", "elev": "3", "bundesland": ""}, "02378": {"icao": "ESNY", "report_available": 0, "name": "Soderhamn", "lat": "61.16", "lon": "17.06", "elev": "26", "bundesland": ""}, "02404": {"icao": "ESKV", "report_available": 0, "name": "Arvika", "lat": "59.40", "lon": "12.35", "elev": "77", "bundesland": ""}, "02418": {"icao": "ESSQ", "report_available": 1, "name": "Karlstad", "lat": "59.22", "lon": "13.28", "elev": "46", "bundesland": ""}, "02435": {"icao": "----", "report_available": 0, "name": "Borlange", "lat": "60.26", "lon": "15.30", "elev": "145", "bundesland": ""}, "02458": {"icao": "ESCM", "report_available": 0, "name": "Uppsala", "lat": "59.53", "lon": "17.36", "elev": "21", "bundesland": ""}, "02460": {"icao": "ESSA", "report_available": 0, "name": "Stockholm/Arlanda", "lat": "59.39", "lon": "17.55", "elev": "37", "bundesland": ""}, "02464": {"icao": "ESKN", "report_available": 1, "name": "Stockholm", "lat": "59.21", "lon": "17.57", "elev": "15", "bundesland": ""}, "02469": {"icao": "----", "report_available": 1, "name": "Tullinge", "lat": "59.11", "lon": "17.55", "elev": "45", "bundesland": ""}, "02476": {"icao": "----", "report_available": 0, "name": "Floda", "lat": "59.04", "lon": "16.23", "elev": "32", "bundesland": ""}, "02481": {"icao": "----", "report_available": 0, "name": "Sala", "lat": "59.55", "lon": "16.41", "elev": "57", "bundesland": ""}, "02490": {"icao": "----", "report_available": 0, "name": "Svanberga", "lat": "59.50", "lon": "18.38", "elev": "15", "bundesland": ""}, "02493": {"icao": "----", "report_available": 0, "name": "Soederarm", "lat": "59.45", "lon": "19.25", "elev": "15", "bundesland": ""}, "02500": {"icao": "----", "report_available": 1, "name": "Nordkoster", "lat": "58.53", "lon": "11.00", "elev": "33", "bundesland": ""}, "02505": {"icao": "----", "report_available": 0, "name": "Maseskar", "lat": "58.05", "lon": "11.20", "elev": "16", "bundesland": ""}, "02512": {"icao": "ESGP", "report_available": 0, "name": "Goeteborg", "lat": "57.47", "lon": "11.53", "elev": "20", "bundesland": ""}, "02513": {"icao": "----", "report_available": 1, "name": "Walldürn", "lat": "49.579", "lon": "9.398", "elev": "404", "bundesland": "BW"}, "02520": {"icao": "ESIB", "report_available": 1, "name": "Satenas", "lat": "58.26", "lon": "12.43", "elev": "54", "bundesland": ""}, "02527": {"icao": "ESGG", "report_available": 0, "name": "Goteborg/Landvetter", "lat": "57.40", "lon": "12.30", "elev": "164", "bundesland": ""}, "02542": {"icao": "----", "report_available": 0, "name": "Hallum", "lat": "58.19", "lon": "13.02", "elev": "70", "bundesland": ""}, "02550": {"icao": "ESGJ", "report_available": 1, "name": "Jonkoping", "lat": "57.46", "lon": "14.05", "elev": "226", "bundesland": ""}, "02559": {"icao": "----", "report_available": 0, "name": "Gladhammar", "lat": "57.43", "lon": "16.27", "elev": "35", "bundesland": ""}, "02562": {"icao": "ESCF", "report_available": 1, "name": "Linkoping", "lat": "58.24", "lon": "15.31", "elev": "93", "bundesland": ""}, "02566": {"icao": "----", "report_available": 0, "name": "Malilla", "lat": "57.24", "lon": "15.49", "elev": "95", "bundesland": ""}, "02574": {"icao": "----", "report_available": 0, "name": "Norrkoping", "lat": "58.35", "lon": "16.09", "elev": "35", "bundesland": ""}, "02584": {"icao": "----", "report_available": 0, "name": "Runkel-Ennerich", "lat": "50.394", "lon": "8.142", "elev": "168", "bundesland": "HE"}, "02586": {"icao": "----", "report_available": 0, "name": "Harstena", "lat": "58.15", "lon": "17.01", "elev": "5", "bundesland": ""}, "02590": {"icao": "ESSV", "report_available": 1, "name": "Wiesbaden-Auringen", "lat": "50.132", "lon": "8.317", "elev": "263", "bundesland": "HE"}, "02595": {"icao": "----", "report_available": 0, "name": "Roma/Gotland", "lat": "57.33", "lon": "18.26", "elev": "35", "bundesland": ""}, "02603": {"icao": "----", "report_available": 0, "name": "Broen", "lat": "56.52", "lon": "12.40", "elev": "47", "bundesland": ""}, "02604": {"icao": "ESMT", "report_available": 0, "name": "Halmstad", "lat": "56.41", "lon": "12.50", "elev": "31", "bundesland": ""}, "02607": {"icao": "ESDB", "report_available": 0, "name": "Angelholm", "lat": "56.18", "lon": "12.51", "elev": "20", "bundesland": ""}, "02611": {"icao": "ESHH", "report_available": 0, "name": "Cölbe, Kr. Marburg-Biedenkopf", "lat": "50.849", "lon": "8.775", "elev": "187", "bundesland": "HE"}, "02616": {"icao": "----", "report_available": 0, "name": "Falsterbo", "lat": "55.23", "lon": "12.49", "elev": "3", "bundesland": ""}, "02620": {"icao": "----", "report_available": 0, "name": "Torup", "lat": "56.58", "lon": "13.04", "elev": "85", "bundesland": ""}, "02623": {"icao": "----", "report_available": 0, "name": "Horby", "lat": "55.52", "lon": "13.40", "elev": "114", "bundesland": ""}, "02625": {"icao": "----", "report_available": 0, "name": "Wasserkuppe", "lat": "50.4973", "lon": "9.9427", "elev": "920", "bundesland": "HE"}, "02628": {"icao": "----", "report_available": 0, "name": "Hano", "lat": "56.01", "lon": "14.51", "elev": "60", "bundesland": ""}, "02635": {"icao": "----", "report_available": 1, "name": "Worms", "lat": "49.605", "lon": "8.366", "elev": "88", "bundesland": "RP"}, "02636": {"icao": "ESMS", "report_available": 0, "name": "Malmo/Sturup", "lat": "55.33", "lon": "13.22", "elev": "106", "bundesland": ""}, "02641": {"icao": "ESMX", "report_available": 0, "name": "Vaxjo", "lat": "56.56", "lon": "14.44", "elev": "182", "bundesland": ""}, "02648": {"icao": "----", "report_available": 0, "name": "Kleiner Feldberg/Taunus", "lat": "50.2218", "lon": "8.4469", "elev": "822", "bundesland": "HE"}, "02651": {"icao": "ESMK", "report_available": 0, "name": "Kristianstad", "lat": "55.55", "lon": "14.05", "elev": "23", "bundesland": ""}, "02664": {"icao": "ESDF", "report_available": 1, "name": "Ronneby", "lat": "56.16", "lon": "15.17", "elev": "58", "bundesland": ""}, "02670": {"icao": "ESMQ", "report_available": 0, "name": "Kalmar", "lat": "56.41", "lon": "16.18", "elev": "6", "bundesland": ""}, "02680": {"icao": "----", "report_available": 0, "name": "Hoburg", "lat": "56.55", "lon": "18.09", "elev": "40", "bundesland": ""}, "02752": {"icao": "----", "report_available": 0, "name": "Kristiinankaupungin", "lat": "62.12", "lon": "21.10", "elev": "2", "bundesland": ""}, "02807": {"icao": "EFIV", "report_available": 1, "name": "Ivalo", "lat": "68.37", "lon": "27.25", "elev": "147", "bundesland": ""}, "02810": {"icao": "EFET", "report_available": 0, "name": "Lautertal-Hörgenau", "lat": "50.581", "lon": "9.286", "elev": "522", "bundesland": "HE"}, "02830": {"icao": "EFKT", "report_available": 0, "name": "Kittila", "lat": "67.42", "lon": "24.51", "elev": "196", "bundesland": ""}, "02836": {"icao": "EFSO", "report_available": 1, "name": "Sodankyla", "lat": "67.22", "lon": "26.39", "elev": "179", "bundesland": ""}, "02847": {"icao": "----", "report_available": 0, "name": "Rovaniemi", "lat": "66.30", "lon": "25.43", "elev": "85", "bundesland": ""}, "02869": {"icao": "EFKS", "report_available": 0, "name": "Kuusamo", "lat": "65.58", "lon": "29.11", "elev": "262", "bundesland": ""}, "02876": {"icao": "----", "report_available": 0, "name": "Oulu", "lat": "65.01", "lon": "25.23", "elev": "3", "bundesland": ""}, "02897": {"icao": "EFKI", "report_available": 1, "name": "Kajaani", "lat": "64.17", "lon": "27.41", "elev": "143", "bundesland": ""}, "02911": {"icao": "EFVA", "report_available": 0, "name": "Kaisersbach-Cronhütte", "lat": "48.917", "lon": "9.6871", "elev": "489", "bundesland": "BW"}, "02912": {"icao": "----", "report_available": 0, "name": "Vaasa", "lat": "63.06", "lon": "21.35", "elev": "4", "bundesland": ""}, "02915": {"icao": "----", "report_available": 1, "name": "Viitasaari", "lat": "63.05", "lon": "25.52", "elev": "132", "bundesland": ""}, "02917": {"icao": "EFKU", "report_available": 1, "name": "Kuopio", "lat": "63.01", "lon": "27.48", "elev": "98", "bundesland": ""}, "02929": {"icao": "EFJO", "report_available": 0, "name": "Joensuu Apt", "lat": "62.40", "lon": "29.38", "elev": "119", "bundesland": ""}, "02935": {"icao": "EFJY", "report_available": 0, "name": "Jyvaskyla", "lat": "62.24", "lon": "25.41", "elev": "141", "bundesland": ""}, "02944": {"icao": "EFTP", "report_available": 1, "name": "Kandern-Gupf", "lat": "47.7", "lon": "7.59", "elev": "362", "bundesland": "BW"}, "02947": {"icao": "----", "report_available": 0, "name": "Mikkeli", "lat": "61.44", "lon": "27.18", "elev": "138", "bundesland": ""}, "02948": {"icao": "EFSA", "report_available": 0, "name": "Savonlinna", "lat": "61.57", "lon": "28.57", "elev": "95", "bundesland": ""}, "02952": {"icao": "EFPO", "report_available": 0, "name": "Pori", "lat": "61.28", "lon": "21.48", "elev": "13", "bundesland": ""}, "02958": {"icao": "----", "report_available": 0, "name": "Lappeenranta", "lat": "61.03", "lon": "28.12", "elev": "101", "bundesland": ""}, "02965": {"icao": "----", "report_available": 1, "name": "Lahti", "lat": "60.58", "lon": "25.38", "elev": "83", "bundesland": ""}, "02966": {"icao": "EFUT", "report_available": 0, "name": "Utti", "lat": "60.54", "lon": "26.56", "elev": "100", "bundesland": ""}, "02970": {"icao": "EFMA", "report_available": 0, "name": "Mariehamn", "lat": "60.07", "lon": "19.54", "elev": "5", "bundesland": ""}, "02972": {"icao": "EFTU", "report_available": 0, "name": "Turku", "lat": "60.31", "lon": "22.16", "elev": "47", "bundesland": ""}, "02974": {"icao": "EFHK", "report_available": 1, "name": "Helsinki/Vantaa", "lat": "60.19", "lon": "24.58", "elev": "51", "bundesland": ""}, "02975": {"icao": "EFHF", "report_available": 0, "name": "Helsinki", "lat": "60.15", "lon": "25.03", "elev": "17", "bundesland": ""}, "02982": {"icao": "----", "report_available": 1, "name": "Hanko", "lat": "59.46", "lon": "22.57", "elev": "5", "bundesland": ""}, "03005": {"icao": "----", "report_available": 1, "name": "Arkona", "lat": "54.6791", "lon": "13.4344", "elev": "42", "bundesland": "MV"}, "03017": {"icao": "EGPA", "report_available": 1, "name": "Kirkwall", "lat": "58.57", "lon": "-2.54", "elev": "26", "bundesland": ""}, "03026": {"icao": "EGPO", "report_available": 1, "name": "Boltenhagen", "lat": "54.0027", "lon": "11.1908", "elev": "15", "bundesland": "MV"}, "03041": {"icao": "----", "report_available": 0, "name": "Aonach Mor", "lat": "56.49", "lon": "-4.58", "elev": "1130", "bundesland": ""}, "03044": {"icao": "----", "report_available": 1, "name": "Waren (Müritz)", "lat": "53.5196", "lon": "12.6654", "elev": "73", "bundesland": "MV"}, "03059": {"icao": "EGPE", "report_available": 0, "name": "Inverness", "lat": "57.32", "lon": "-4.03", "elev": "9", "bundesland": ""}, "03063": {"icao": "----", "report_available": 0, "name": "Aviemore", "lat": "57.13", "lon": "-3.50", "elev": "228", "bundesland": ""}, "03065": {"icao": "----", "report_available": 0, "name": "Steinhagen-Negast", "lat": "54.248", "lon": "13.042", "elev": "17", "bundesland": "MV"}, "03066": {"icao": "EGQK", "report_available": 1, "name": "Kinloss", "lat": "57.39", "lon": "-3.34", "elev": "6", "bundesland": ""}, "03068": {"icao": "EGQS", "report_available": 1, "name": "Lossiemouth", "lat": "57.43", "lon": "-3.19", "elev": "13", "bundesland": ""}, "03075": {"icao": "EGPC", "report_available": 1, "name": "Wick", "lat": "58.27", "lon": "-3.05", "elev": "39", "bundesland": ""}, "03091": {"icao": "EGPD", "report_available": 1, "name": "Aberdeen", "lat": "57.12", "lon": "-2.13", "elev": "65", "bundesland": ""}, "03094": {"icao": "----", "report_available": 0, "name": "Rosehearty", "lat": "57.42", "lon": "-2.07", "elev": "4", "bundesland": ""}, "03100": {"icao": "EGPU", "report_available": 1, "name": "Tiree", "lat": "56.30", "lon": "-6.53", "elev": "12", "bundesland": ""}, "03114": {"icao": "----", "report_available": 0, "name": "Oban", "lat": "56.25", "lon": "-5.28", "elev": "4", "bundesland": ""}, "03132": {"icao": "----", "report_available": 1, "name": "West Freugh", "lat": "54.52", "lon": "-4.56", "elev": "11", "bundesland": ""}, "03135": {"icao": "EGPK", "report_available": 0, "name": "Prestwick", "lat": "55.30", "lon": "-4.36", "elev": "20", "bundesland": ""}, "03136": {"icao": "----", "report_available": 1, "name": "Prestwick/Rnas", "lat": "55.31", "lon": "-4.35", "elev": "26", "bundesland": ""}, "03140": {"icao": "EGPF", "report_available": 0, "name": "Glasgow", "lat": "55.52", "lon": "-4.26", "elev": "8", "bundesland": ""}, "03154": {"icao": "----", "report_available": 0, "name": "Dumfries", "lat": "55.03", "lon": "-3.39", "elev": "16", "bundesland": ""}, "03158": {"icao": "----", "report_available": 1, "name": "Charterhall", "lat": "55.43", "lon": "-2.23", "elev": "112", "bundesland": ""}, "03160": {"icao": "EGPH", "report_available": 0, "name": "Edinburgh", "lat": "55.57", "lon": "-3.21", "elev": "41", "bundesland": ""}, "03162": {"icao": "----", "report_available": 1, "name": "Seehausen", "lat": "52.8911", "lon": "11.7297", "elev": "21", "bundesland": "ST"}, "03171": {"icao": "EGQL", "report_available": 1, "name": "Leuchars", "lat": "56.23", "lon": "-2.52", "elev": "12", "bundesland": ""}, "03204": {"icao": "EGNS", "report_available": 1, "name": "Isle Of Man/Roual.", "lat": "54.05", "lon": "-4.38", "elev": "17", "bundesland": ""}, "03220": {"icao": "----", "report_available": 1, "name": "Carlisle", "lat": "54.56", "lon": "-2.58", "elev": "28", "bundesland": ""}, "03235": {"icao": "----", "report_available": 0, "name": "Boltshope Park", "lat": "54.49", "lon": "-2.05", "elev": "434", "bundesland": ""}, "03245": {"icao": "EGNT", "report_available": 0, "name": "Bertsdorf-Hörnitz", "lat": "50.899", "lon": "14.746", "elev": "271", "bundesland": "SN"}, "03246": {"icao": "----", "report_available": 0, "name": "Newcastle", "lat": "55.02", "lon": "-1.41", "elev": "80", "bundesland": ""}, "03257": {"icao": "EGXE", "report_available": 1, "name": "Leeming", "lat": "54.18", "lon": "-1.32", "elev": "40", "bundesland": ""}, "03261": {"icao": "----", "report_available": 1, "name": "Dishforth Airfield", "lat": "54.08", "lon": "-1.25", "elev": "36", "bundesland": ""}, "03262": {"icao": "----", "report_available": 0, "name": "Tynemouth", "lat": "55.01", "lon": "-1.25", "elev": "30", "bundesland": ""}, "03265": {"icao": "EGXZ", "report_available": 0, "name": "Topcliffe", "lat": "54.12", "lon": "-1.23", "elev": "25", "bundesland": ""}, "03266": {"icao": "EGXU", "report_available": 0, "name": "Linton-On-Ouse", "lat": "54.03", "lon": "-1.15", "elev": "16", "bundesland": ""}, "03275": {"icao": "----", "report_available": 0, "name": "Loftus Samos", "lat": "54.20", "lon": "-0.31", "elev": "158", "bundesland": ""}, "03292": {"icao": "----", "report_available": 1, "name": "Bridlington", "lat": "54.05", "lon": "-0.11", "elev": "15", "bundesland": ""}, "03302": {"icao": "EGOV", "report_available": 1, "name": "Valley", "lat": "53.15", "lon": "-4.32", "elev": "11", "bundesland": ""}, "03313": {"icao": "----", "report_available": 0, "name": "Rhyl", "lat": "53.16", "lon": "-3.31", "elev": "77", "bundesland": ""}, "03318": {"icao": "EGNH", "report_available": 0, "name": "Blackpool", "lat": "53.46", "lon": "-3.02", "elev": "10", "bundesland": ""}, "03321": {"icao": "EGNR", "report_available": 1, "name": "Hawarden", "lat": "53.10", "lon": "-2.59", "elev": "10", "bundesland": ""}, "03334": {"icao": "EGCC", "report_available": 0, "name": "Manschnow", "lat": "52.5468", "lon": "14.5453", "elev": "12", "bundesland": "BB"}, "03347": {"icao": "EGRY", "report_available": 0, "name": "Leeds/Met", "lat": "53.48", "lon": "-1.33", "elev": "47", "bundesland": ""}, "03354": {"icao": "EGRW", "report_available": 1, "name": "Nottingham/Met", "lat": "53.00", "lon": "-1.15", "elev": "117", "bundesland": ""}, "03377": {"icao": "----", "report_available": 1, "name": "Oschatz", "lat": "51.296", "lon": "13.0928", "elev": "150", "bundesland": "SN"}, "03379": {"icao": "EGYD", "report_available": 1, "name": "Nossen", "lat": "51.051", "lon": "13.3", "elev": "306", "bundesland": "SN"}, "03385": {"icao": "----", "report_available": 0, "name": "Donna Nook", "lat": "53.29", "lon": "0.05", "elev": "8", "bundesland": ""}, "03405": {"icao": "----", "report_available": 1, "name": "Aberdaron", "lat": "52.47", "lon": "-4.44", "elev": "95", "bundesland": ""}, "03414": {"icao": "EGOS", "report_available": 1, "name": "Shawbury", "lat": "52.48", "lon": "-2.40", "elev": "76", "bundesland": ""}, "03453": {"icao": "EGXJ", "report_available": 0, "name": "Cottesmore", "lat": "52.44", "lon": "-0.39", "elev": "138", "bundesland": ""}, "03462": {"icao": "EGXT", "report_available": 1, "name": "Wittering", "lat": "52.37", "lon": "-0.28", "elev": "84", "bundesland": ""}, "03482": {"icao": "EGYM", "report_available": 1, "name": "Marham", "lat": "52.39", "lon": "0.34", "elev": "23", "bundesland": ""}, "03492": {"icao": "EGSH", "report_available": 0, "name": "Norwich-W.C.", "lat": "52.38", "lon": "1.18", "elev": "14", "bundesland": ""}, "03495": {"icao": "EGYC", "report_available": 0, "name": "Coltishall", "lat": "52.46", "lon": "1.21", "elev": "20", "bundesland": ""}, "03496": {"icao": "----", "report_available": 0, "name": "Hemsby", "lat": "52.41", "lon": "1.41", "elev": "13", "bundesland": ""}, "03499": {"icao": "----", "report_available": 0, "name": "Sm.Knoll", "lat": "52.43", "lon": "2.18", "elev": "5", "bundesland": ""}, "03502": {"icao": "EGUC", "report_available": 1, "name": "Aberporth", "lat": "52.08", "lon": "-4.34", "elev": "133", "bundesland": ""}, "03503": {"icao": "----", "report_available": 0, "name": "Trawscoed", "lat": "52.20", "lon": "-3.57", "elev": "63", "bundesland": ""}, "03520": {"icao": "EGBS", "report_available": 1, "name": "Shobdon", "lat": "52.15", "lon": "-2.53", "elev": "99", "bundesland": ""}, "03534": {"icao": "EGBB", "report_available": 0, "name": "Birmingham/Airport", "lat": "52.27", "lon": "-1.45", "elev": "93", "bundesland": ""}, "03560": {"icao": "EGVW", "report_available": 1, "name": "Bedford", "lat": "52.13", "lon": "-0.29", "elev": "85", "bundesland": ""}, "03590": {"icao": "EGUW", "report_available": 1, "name": "Wattisham", "lat": "52.07", "lon": "0.58", "elev": "87", "bundesland": ""}, "03604": {"icao": "----", "report_available": 1, "name": "Milford Haven", "lat": "51.43", "lon": "-5.03", "elev": "44", "bundesland": ""}, "03628": {"icao": "EGTG", "report_available": 1, "name": "Bristol/Filton", "lat": "51.31", "lon": "-2.35", "elev": "59", "bundesland": ""}, "03647": {"icao": "----", "report_available": 0, "name": "Little Rissington", "lat": "51.52", "lon": "-1.41", "elev": "215", "bundesland": ""}, "03649": {"icao": "EGVN", "report_available": 0, "name": "Brize Norton", "lat": "51.45", "lon": "-1.35", "elev": "88", "bundesland": ""}, "03672": {"icao": "EGWU", "report_available": 0, "name": "Northolt", "lat": "51.33", "lon": "-0.25", "elev": "38", "bundesland": ""}, "03683": {"icao": "EGSS", "report_available": 0, "name": "Stansted", "lat": "51.53", "lon": "0.14", "elev": "106", "bundesland": ""}, "03707": {"icao": "EGDC", "report_available": 0, "name": "Chivenor", "lat": "51.05", "lon": "-4.09", "elev": "6", "bundesland": ""}, "03715": {"icao": "EGFF", "report_available": 0, "name": "Cardiff-Wales", "lat": "51.24", "lon": "-3.21", "elev": "67", "bundesland": ""}, "03716": {"icao": "EGSY", "report_available": 0, "name": "St. Athan /Wales", "lat": "51.24", "lon": "-3.26", "elev": "50", "bundesland": ""}, "03726": {"icao": "EGRD", "report_available": 0, "name": "Bristol/Met.", "lat": "51.28", "lon": "-2.36", "elev": "11", "bundesland": ""}, "03740": {"icao": "EGDL", "report_available": 1, "name": "Lyneham", "lat": "51.30", "lon": "-1.59", "elev": "145", "bundesland": ""}, "03743": {"icao": "----", "report_available": 1, "name": "Larkhill", "lat": "51.12", "lon": "-1.49", "elev": "132", "bundesland": ""}, "03768": {"icao": "----", "report_available": 0, "name": "Farnborough", "lat": "51.17", "lon": "0.46", "elev": "65", "bundesland": ""}, "03772": {"icao": "EGLL", "report_available": 1, "name": "London", "lat": "51.29", "lon": "-0.27", "elev": "24", "bundesland": ""}, "03776": {"icao": "EGKK", "report_available": 0, "name": "London/Gatwick", "lat": "51.09", "lon": "-0.11", "elev": "62", "bundesland": ""}, "03779": {"icao": "EGRB", "report_available": 0, "name": "London Weather Cent.", "lat": "51.31", "lon": "-0.06", "elev": "43", "bundesland": ""}, "03781": {"icao": "----", "report_available": 1, "name": "Kenley", "lat": "51.18", "lon": "-0.05", "elev": "170", "bundesland": ""}, "03797": {"icao": "EGMH", "report_available": 1, "name": "Manston", "lat": "51.21", "lon": "1.21", "elev": "44", "bundesland": ""}, "03803": {"icao": "----", "report_available": 0, "name": "Scilly", "lat": "49.55", "lon": "-6.18", "elev": "31", "bundesland": ""}, "03808": {"icao": "----", "report_available": 1, "name": "Camborne", "lat": "50.13", "lon": "-5.20", "elev": "87", "bundesland": ""}, "03809": {"icao": "EGDR", "report_available": 0, "name": "Kiel-Holtenau", "lat": "54.3776", "lon": "10.1424", "elev": "28", "bundesland": "SH"}, "03817": {"icao": "EGDG", "report_available": 0, "name": "St. Mawgan", "lat": "50.26", "lon": "-5.00", "elev": "103", "bundesland": ""}, "03827": {"icao": "EGDB", "report_available": 1, "name": "Plymouth", "lat": "50.21", "lon": "-4.07", "elev": "50", "bundesland": ""}, "03839": {"icao": "EGTE", "report_available": 1, "name": "Exeter Apt", "lat": "50.44", "lon": "-3.25", "elev": "30", "bundesland": ""}, "03853": {"icao": "----", "report_available": 1, "name": "Yeovilton", "lat": "51.01", "lon": "-2.38", "elev": "23", "bundesland": ""}, "03862": {"icao": "EGHH", "report_available": 0, "name": "Bournemouth/Hurn", "lat": "50.47", "lon": "-1.50", "elev": "11", "bundesland": ""}, "03865": {"icao": "EGHI", "report_available": 0, "name": "Southampton", "lat": "50.54", "lon": "-1.24", "elev": "9", "bundesland": ""}, "03866": {"icao": "----", "report_available": 0, "name": "St.Catherine'S Point", "lat": "50.35", "lon": "-1.18", "elev": "16", "bundesland": ""}, "03882": {"icao": "----", "report_available": 0, "name": "Lübeck-Blankensee", "lat": "53.8025", "lon": "10.6989", "elev": "15", "bundesland": "SH"}, "03890": {"icao": "----", "report_available": 0, "name": "Oxford", "lat": "51.45", "lon": "-1.16", "elev": "68", "bundesland": ""}, "03894": {"icao": "EGJB", "report_available": 1, "name": "Wendisch Evern", "lat": "53.214", "lon": "10.47", "elev": "62", "bundesland": "NI"}, "03895": {"icao": "EGJJ", "report_available": 1, "name": "Jersey-Airport", "lat": "49.13", "lon": "-2.12", "elev": "84", "bundesland": ""}, "03903": {"icao": "EGAB", "report_available": 0, "name": "St. Angelo", "lat": "54.24", "lon": "-7.39", "elev": "47", "bundesland": ""}, "03908": {"icao": "EGQB", "report_available": 0, "name": "Ballykelly", "lat": "55.04", "lon": "-7.01", "elev": "2", "bundesland": ""}, "03914": {"icao": "----", "report_available": 0, "name": "Portrush", "lat": "55.12", "lon": "-6.39", "elev": "8", "bundesland": ""}, "03917": {"icao": "EGAA", "report_available": 1, "name": "Belfast", "lat": "54.39", "lon": "-6.13", "elev": "81", "bundesland": ""}, "03930": {"icao": "EGGP", "report_available": 0, "name": "Liverpool", "lat": "53.20", "lon": "-2.52", "elev": "26", "bundesland": ""}, "03953": {"icao": "----", "report_available": 1, "name": "Valentia", "lat": "51.56", "lon": "-10.14", "elev": "25", "bundesland": ""}, "03955": {"icao": "EICK", "report_available": 1, "name": "Cork Airport", "lat": "51.51", "lon": "-8.29", "elev": "153", "bundesland": ""}, "03957": {"icao": "----", "report_available": 0, "name": "Rosslare", "lat": "52.15", "lon": "-6.20", "elev": "23", "bundesland": ""}, "03958": {"icao": "EGBE", "report_available": 0, "name": "Coventry", "lat": "52.22", "lon": "-1.29", "elev": "82", "bundesland": ""}, "03960": {"icao": "EIKL", "report_available": 0, "name": "Kilkenny", "lat": "52.40", "lon": "-7.16", "elev": "63", "bundesland": ""}, "03961": {"icao": "----", "report_available": 0, "name": "Carlow Oak Park", "lat": "52.51", "lon": "-6.55", "elev": "61", "bundesland": ""}, "03962": {"icao": "EINN", "report_available": 1, "name": "Shannon", "lat": "52.42", "lon": "-8.55", "elev": "14", "bundesland": ""}, "03969": {"icao": "EIDW", "report_available": 1, "name": "Dublin", "lat": "53.26", "lon": "-6.15", "elev": "68", "bundesland": ""}, "03971": {"icao": "----", "report_available": 0, "name": "Mullingar", "lat": "53.32", "lon": "-7.22", "elev": "100", "bundesland": ""}, "03976": {"icao": "----", "report_available": 1, "name": "Seesen", "lat": "51.904", "lon": "10.189", "elev": "189", "bundesland": "NI"}, "03980": {"icao": "----", "report_available": 1, "name": "Malin Head", "lat": "55.22", "lon": "-7.20", "elev": "20", "bundesland": ""}, "04018": {"icao": "BIKF", "report_available": 0, "name": "Keflavik", "lat": "63.58", "lon": "-22.36", "elev": "52", "bundesland": ""}, "04030": {"icao": "BIRK", "report_available": 1, "name": "Reykjavik", "lat": "64.08", "lon": "-21.54", "elev": "54", "bundesland": ""}, "04048": {"icao": "BIVM", "report_available": 1, "name": "Vestmannaeyjar", "lat": "63.24", "lon": "-20.17", "elev": "118", "bundesland": ""}, "04063": {"icao": "BIAR", "report_available": 1, "name": "Akureyri", "lat": "65.41", "lon": "-18.05", "elev": "23", "bundesland": ""}, "04072": {"icao": "----", "report_available": 0, "name": "Fagurholsmyri", "lat": "63.53", "lon": "-16.39", "elev": "46", "bundesland": ""}, "04094": {"icao": "----", "report_available": 0, "name": "Nupur", "lat": "64.42", "lon": "-14.06", "elev": "25", "bundesland": ""}, "04097": {"icao": "----", "report_available": 1, "name": "Dalatangi", "lat": "65.16", "lon": "-13.35", "elev": "9", "bundesland": ""}, "04231": {"icao": "BGSF", "report_available": 0, "name": "Sondrestromfjord", "lat": "67.01", "lon": "-50.42", "elev": "50", "bundesland": ""}, "04250": {"icao": "----", "report_available": 0, "name": "Godthab Nuuk", "lat": "64.10", "lon": "-51.45", "elev": "80", "bundesland": ""}, "04270": {"icao": "BGBW", "report_available": 0, "name": "Altmühlsee", "lat": "49.142", "lon": "10.73", "elev": "416", "bundesland": "BY"}, "04320": {"icao": "BGDH", "report_available": 0, "name": "Danmarkshavn", "lat": "76.46", "lon": "-18.40", "elev": "11", "bundesland": ""}, "04330": {"icao": "BGDB", "report_available": 0, "name": "Aubstadt", "lat": "50.333", "lon": "10.449", "elev": "304", "bundesland": "BY"}, "04339": {"icao": "BGSC", "report_available": 0, "name": "Scoresbysund", "lat": "70.29", "lon": "-21.58", "elev": "65", "bundesland": ""}, "04360": {"icao": "BGAM", "report_available": 0, "name": "Harburg", "lat": "48.7918", "lon": "10.7062", "elev": "501", "bundesland": "BY"}, "04361": {"icao": "BGKK", "report_available": 0, "name": "Kulusuk", "lat": "65.34", "lon": "-37.08", "elev": "35", "bundesland": ""}, "06011": {"icao": "----", "report_available": 0, "name": "Faroeer", "lat": "62.01", "lon": "-6.46", "elev": "54", "bundesland": ""}, "06030": {"icao": "EKYT", "report_available": 1, "name": "Alborg", "lat": "57.06", "lon": "9.52", "elev": "3", "bundesland": ""}, "06041": {"icao": "----", "report_available": 0, "name": "Skagen", "lat": "57.46", "lon": "10.39", "elev": "3", "bundesland": ""}, "06052": {"icao": "----", "report_available": 0, "name": "Thyboron", "lat": "56.43", "lon": "8.13", "elev": "2", "bundesland": ""}, "06060": {"icao": "EKKA", "report_available": 1, "name": "Karup", "lat": "56.18", "lon": "9.07", "elev": "52", "bundesland": ""}, "06062": {"icao": "EKSV", "report_available": 0, "name": "Skive", "lat": "56.33", "lon": "9.10", "elev": "23", "bundesland": ""}, "06070": {"icao": "EKAH", "report_available": 1, "name": "Tirstrup", "lat": "56.18", "lon": "10.37", "elev": "25", "bundesland": ""}, "06078": {"icao": "----", "report_available": 0, "name": "Anholt", "lat": "56.42", "lon": "11.33", "elev": "7", "bundesland": ""}, "06080": {"icao": "EKEB", "report_available": 0, "name": "Esbjerg", "lat": "55.31", "lon": "8.33", "elev": "29", "bundesland": ""}, "06104": {"icao": "EKBI", "report_available": 0, "name": "Billund", "lat": "55.44", "lon": "9.09", "elev": "70", "bundesland": ""}, "06110": {"icao": "EKSP", "report_available": 0, "name": "Skrydstrup", "lat": "55.14", "lon": "9.16", "elev": "43", "bundesland": ""}, "06119": {"icao": "----", "report_available": 0, "name": "Kegnaes", "lat": "54.51", "lon": "9.59", "elev": "17", "bundesland": ""}, "06120": {"icao": "EKOD", "report_available": 1, "name": "Odense", "lat": "55.28", "lon": "10.20", "elev": "17", "bundesland": ""}, "06141": {"icao": "----", "report_available": 0, "name": "Abed", "lat": "54.50", "lon": "11.20", "elev": "8", "bundesland": ""}, "06147": {"icao": "----", "report_available": 0, "name": "Vindebaek Kyst", "lat": "54.53", "lon": "12.11", "elev": "3", "bundesland": ""}, "06160": {"icao": "EKVL", "report_available": 0, "name": "Vaerloese", "lat": "55.46", "lon": "12.20", "elev": "18", "bundesland": ""}, "06169": {"icao": "----", "report_available": 0, "name": "Gniben", "lat": "56.01", "lon": "11.17", "elev": "14", "bundesland": ""}, "06170": {"icao": "EKRK", "report_available": 0, "name": "Koebenhavn/Roskilde", "lat": "55.35", "lon": "12.08", "elev": "44", "bundesland": ""}, "06174": {"icao": "----", "report_available": 0, "name": "Tesseboelle", "lat": "55.24", "lon": "12.09", "elev": "21", "bundesland": ""}, "06180": {"icao": "EKCH", "report_available": 1, "name": "Kopenhagen", "lat": "55.38", "lon": "12.40", "elev": "5", "bundesland": ""}, "06190": {"icao": "EKRN", "report_available": 0, "name": "Roenne/Bornh.", "lat": "55.04", "lon": "14.45", "elev": "16", "bundesland": ""}, "06210": {"icao": "EHVB", "report_available": 1, "name": "Valkenburg", "lat": "52.11", "lon": "4.25", "elev": "0", "bundesland": ""}, "06235": {"icao": "EHKD", "report_available": 1, "name": "Kooy", "lat": "52.55", "lon": "4.47", "elev": "0", "bundesland": ""}, "06240": {"icao": "EHAM", "report_available": 1, "name": "Amsterdam", "lat": "52.18", "lon": "4.46", "elev": "-4", "bundesland": ""}, "06242": {"icao": "EHVL", "report_available": 0, "name": "Vlieland", "lat": "53.15", "lon": "4.55", "elev": "11", "bundesland": ""}, "06250": {"icao": "EHTS", "report_available": 0, "name": "Terschelling", "lat": "53.22", "lon": "5.13", "elev": "26", "bundesland": ""}, "06260": {"icao": "EHDB", "report_available": 0, "name": "De Bilt", "lat": "52.06", "lon": "5.11", "elev": "2", "bundesland": ""}, "06270": {"icao": "EHLW", "report_available": 1, "name": "Leeuwarden", "lat": "53.13", "lon": "5.46", "elev": "1", "bundesland": ""}, "06275": {"icao": "EHDL", "report_available": 0, "name": "Deelen", "lat": "52.04", "lon": "5.53", "elev": "48", "bundesland": ""}, "06279": {"icao": "EHHO", "report_available": 0, "name": "Hoogeveen", "lat": "52.44", "lon": "6.31", "elev": "12", "bundesland": ""}, "06280": {"icao": "EHGG", "report_available": 0, "name": "Groningen", "lat": "53.08", "lon": "6.35", "elev": "4", "bundesland": ""}, "06290": {"icao": "EHTW", "report_available": 1, "name": "Twenthe", "lat": "52.16", "lon": "6.54", "elev": "35", "bundesland": ""}, "06310": {"icao": "----", "report_available": 0, "name": "Vlissingen", "lat": "51.26", "lon": "3.36", "elev": "8", "bundesland": ""}, "06330": {"icao": "----", "report_available": 0, "name": "Hoek V.Holl.", "lat": "51.59", "lon": "4.07", "elev": "12", "bundesland": ""}, "06344": {"icao": "EHRD", "report_available": 1, "name": "Rotterdam", "lat": "51.57", "lon": "4.27", "elev": "-5", "bundesland": ""}, "06350": {"icao": "EHGR", "report_available": 0, "name": "Gilze Rijen", "lat": "51.34", "lon": "4.56", "elev": "11", "bundesland": ""}, "06370": {"icao": "EHEH", "report_available": 1, "name": "Eindhoven", "lat": "51.27", "lon": "5.25", "elev": "23", "bundesland": ""}, "06375": {"icao": "EHVK", "report_available": 1, "name": "Volkel", "lat": "51.39", "lon": "5.42", "elev": "22", "bundesland": ""}, "06380": {"icao": "EHBK", "report_available": 1, "name": "Maastricht", "lat": "50.55", "lon": "5.47", "elev": "114", "bundesland": ""}, "06407": {"icao": "EBOS", "report_available": 1, "name": "Oostende", "lat": "51.12", "lon": "2.52", "elev": "4", "bundesland": ""}, "06431": {"icao": "----", "report_available": 0, "name": "Gent", "lat": "51.11", "lon": "3.49", "elev": "10", "bundesland": ""}, "06449": {"icao": "EBCI", "report_available": 0, "name": "Charleroi", "lat": "50.28", "lon": "4.27", "elev": "187", "bundesland": ""}, "06450": {"icao": "EBAW", "report_available": 0, "name": "Antwerpen", "lat": "51.12", "lon": "4.28", "elev": "12", "bundesland": ""}, "06451": {"icao": "EBBR", "report_available": 0, "name": "Bruessel", "lat": "50.54", "lon": "4.32", "elev": "55", "bundesland": ""}, "06456": {"icao": "EBFS", "report_available": 0, "name": "Florennes", "lat": "50.14", "lon": "4.40", "elev": "279", "bundesland": ""}, "06458": {"icao": "EBBE", "report_available": 0, "name": "Beauvechain", "lat": "50.45", "lon": "4.46", "elev": "105", "bundesland": ""}, "06476": {"icao": "EBSH", "report_available": 1, "name": "St.Hubert", "lat": "50.02", "lon": "5.24", "elev": "563", "bundesland": ""}, "06478": {"icao": "EBLG", "report_available": 0, "name": "Bierset", "lat": "50.39", "lon": "5.27", "elev": "178", "bundesland": ""}, "06479": {"icao": "EBBL", "report_available": 0, "name": "Kleine Brogel", "lat": "51.10", "lon": "5.28", "elev": "55", "bundesland": ""}, "06490": {"icao": "EBSP", "report_available": 0, "name": "Spa/La Sauveniere", "lat": "50.29", "lon": "5.55", "elev": "470", "bundesland": ""}, "06496": {"icao": "EBLB", "report_available": 0, "name": "Elsenborn", "lat": "50.28", "lon": "6.11", "elev": "564", "bundesland": ""}, "06590": {"icao": "ELLX", "report_available": 1, "name": "Luxemburg", "lat": "49.37", "lon": "6.13", "elev": "376", "bundesland": ""}, "06601": {"icao": "----", "report_available": 0, "name": "Basel", "lat": "47.32", "lon": "7.35", "elev": "316", "bundesland": ""}, "06604": {"icao": "LSGN", "report_available": 0, "name": "Neuchatel", "lat": "47.00", "lon": "6.57", "elev": "485", "bundesland": ""}, "06605": {"icao": "----", "report_available": 0, "name": "Chasseral", "lat": "47.08", "lon": "7.03", "elev": "1599", "bundesland": ""}, "06606": {"icao": "----", "report_available": 0, "name": "Cressier", "lat": "47.03", "lon": "7.04", "elev": "431", "bundesland": ""}, "06609": {"icao": "----", "report_available": 0, "name": "Moleson", "lat": "46.33", "lon": "7.01", "elev": "1972", "bundesland": ""}, "06610": {"icao": "----", "report_available": 1, "name": "Payerne", "lat": "46.49", "lon": "6.56", "elev": "490", "bundesland": ""}, "06612": {"icao": "LSGC", "report_available": 0, "name": "La Chaux De Fonds", "lat": "47.05", "lon": "6.48", "elev": "1018", "bundesland": ""}, "06616": {"icao": "----", "report_available": 0, "name": "Fahy", "lat": "47.25", "lon": "6.56", "elev": "596", "bundesland": ""}, "06619": {"icao": "----", "report_available": 0, "name": "La Fretaz", "lat": "46.50", "lon": "6.35", "elev": "1202", "bundesland": ""}, "06620": {"icao": "LSPF", "report_available": 0, "name": "Schaffhausen", "lat": "47.41", "lon": "8.37", "elev": "437", "bundesland": ""}, "06621": {"icao": "----", "report_available": 0, "name": "Guettingen", "lat": "47.36", "lon": "9.17", "elev": "440", "bundesland": ""}, "06623": {"icao": "----", "report_available": 0, "name": "Salen-Reutenen", "lat": "47.39", "lon": "9.01", "elev": "718", "bundesland": ""}, "06624": {"icao": "----", "report_available": 0, "name": "Hallau", "lat": "47.42", "lon": "8.28", "elev": "419", "bundesland": ""}, "06625": {"icao": "----", "report_available": 0, "name": "Fribourg Posieux", "lat": "46.46", "lon": "7.07", "elev": "646", "bundesland": ""}, "06626": {"icao": "----", "report_available": 0, "name": "Goesgen (Kkw)", "lat": "47.22", "lon": "7.58", "elev": "380", "bundesland": ""}, "06628": {"icao": "----", "report_available": 0, "name": "Plaffeien-Obersch.", "lat": "46.45", "lon": "7.16", "elev": "1042", "bundesland": ""}, "06629": {"icao": "----", "report_available": 0, "name": "Muehleberg / Stocker", "lat": "46.57", "lon": "7.17", "elev": "775", "bundesland": ""}, "06630": {"icao": "LSZB", "report_available": 0, "name": "Bern", "lat": "46.55", "lon": "7.30", "elev": "510", "bundesland": ""}, "06631": {"icao": "----", "report_available": 0, "name": "Bern-Liebefeld", "lat": "46.59", "lon": "7.27", "elev": "553", "bundesland": ""}, "06632": {"icao": "----", "report_available": 0, "name": "Grenchen", "lat": "47.11", "lon": "7.25", "elev": "430", "bundesland": ""}, "06633": {"icao": "----", "report_available": 0, "name": "Buchs-Suhr", "lat": "47.23", "lon": "8.05", "elev": "387", "bundesland": ""}, "06635": {"icao": "----", "report_available": 0, "name": "Koppigen", "lat": "47.07", "lon": "7.37", "elev": "484", "bundesland": ""}, "06636": {"icao": "----", "report_available": 0, "name": "Muehleberg (Kkw)", "lat": "46.58", "lon": "7.17", "elev": "480", "bundesland": ""}, "06637": {"icao": "----", "report_available": 0, "name": "Meiringen", "lat": "46.43", "lon": "8.10", "elev": "589", "bundesland": ""}, "06638": {"icao": "----", "report_available": 0, "name": "Langnau I.E.", "lat": "46.56", "lon": "7.49", "elev": "745", "bundesland": ""}, "06639": {"icao": "----", "report_available": 0, "name": "Napf", "lat": "47.00", "lon": "7.56", "elev": "1406", "bundesland": ""}, "06641": {"icao": "----", "report_available": 0, "name": "Moehlin", "lat": "47.34", "lon": "7.53", "elev": "344", "bundesland": ""}, "06643": {"icao": "----", "report_available": 0, "name": "Wynau", "lat": "47.16", "lon": "7.47", "elev": "422", "bundesland": ""}, "06645": {"icao": "----", "report_available": 0, "name": "Ruenenberg", "lat": "47.26", "lon": "7.53", "elev": "611", "bundesland": ""}, "06646": {"icao": "----", "report_available": 0, "name": "Beznau", "lat": "47.34", "lon": "8.14", "elev": "326", "bundesland": ""}, "06647": {"icao": "----", "report_available": 0, "name": "Wuerenlingen", "lat": "47.32", "lon": "8.14", "elev": "334", "bundesland": ""}, "06648": {"icao": "----", "report_available": 0, "name": "Egolzwil", "lat": "47.11", "lon": "8.00", "elev": "521", "bundesland": ""}, "06650": {"icao": "----", "report_available": 0, "name": "Luzern", "lat": "47.01", "lon": "8.18", "elev": "456", "bundesland": ""}, "06651": {"icao": "----", "report_available": 0, "name": "Schuepfheim", "lat": "46.57", "lon": "8.01", "elev": "742", "bundesland": ""}, "06655": {"icao": "----", "report_available": 0, "name": "Engelberg", "lat": "46.49", "lon": "8.25", "elev": "1036", "bundesland": ""}, "06657": {"icao": "----", "report_available": 0, "name": "Giswil", "lat": "46.50", "lon": "8.11", "elev": "471", "bundesland": ""}, "06659": {"icao": "----", "report_available": 0, "name": "Pilatus", "lat": "46.59", "lon": "8.15", "elev": "2106", "bundesland": ""}, "06660": {"icao": "----", "report_available": 0, "name": "Zuerich (Town/Ville)", "lat": "47.23", "lon": "8.34", "elev": "556", "bundesland": ""}, "06664": {"icao": "----", "report_available": 0, "name": "Reckenholz", "lat": "47.26", "lon": "8.31", "elev": "444", "bundesland": ""}, "06666": {"icao": "----", "report_available": 0, "name": "Leibstadt (Kkw)", "lat": "47.36", "lon": "8.11", "elev": "341", "bundesland": ""}, "06669": {"icao": "----", "report_available": 0, "name": "Laegern", "lat": "47.29", "lon": "8.24", "elev": "868", "bundesland": ""}, "06670": {"icao": "LSZH", "report_available": 1, "name": "Zuerich", "lat": "47.29", "lon": "8.32", "elev": "436", "bundesland": ""}, "06672": {"icao": "----", "report_available": 0, "name": "Altdorf", "lat": "46.52", "lon": "8.38", "elev": "449", "bundesland": ""}, "06673": {"icao": "----", "report_available": 0, "name": "Waedenswl", "lat": "47.13", "lon": "8.41", "elev": "463", "bundesland": ""}, "06674": {"icao": "----", "report_available": 0, "name": "Cham", "lat": "47.11", "lon": "8.28", "elev": "443", "bundesland": ""}, "06675": {"icao": "----", "report_available": 0, "name": "Einsiedeln", "lat": "47.08", "lon": "8.46", "elev": "910", "bundesland": ""}, "06676": {"icao": "----", "report_available": 0, "name": "Oberaegeri", "lat": "47.08", "lon": "8.37", "elev": "724", "bundesland": ""}, "06678": {"icao": "----", "report_available": 0, "name": "Bischofszell", "lat": "47.30", "lon": "9.14", "elev": "470", "bundesland": ""}, "06679": {"icao": "----", "report_available": 0, "name": "Taenikon", "lat": "47.28", "lon": "8.54", "elev": "536", "bundesland": ""}, "06680": {"icao": "----", "report_available": 1, "name": "Saentis", "lat": "47.15", "lon": "9.20", "elev": "2502", "bundesland": ""}, "06681": {"icao": "----", "report_available": 0, "name": "St.Gallen", "lat": "47.26", "lon": "9.24", "elev": "779", "bundesland": ""}, "06682": {"icao": "----", "report_available": 0, "name": "Elm", "lat": "46.55", "lon": "9.11", "elev": "958", "bundesland": ""}, "06683": {"icao": "----", "report_available": 0, "name": "Schmerikon", "lat": "47.13", "lon": "8.56", "elev": "408", "bundesland": ""}, "06685": {"icao": "----", "report_available": 0, "name": "Glarus", "lat": "47.02", "lon": "9.04", "elev": "515", "bundesland": ""}, "06687": {"icao": "----", "report_available": 0, "name": "Quinten", "lat": "47.08", "lon": "9.13", "elev": "419", "bundesland": ""}, "06688": {"icao": "----", "report_available": 0, "name": "Crap Masegn", "lat": "46.50", "lon": "9.11", "elev": "2480", "bundesland": ""}, "06689": {"icao": "----", "report_available": 0, "name": "Hoernli", "lat": "47.22", "lon": "8.56", "elev": "1144", "bundesland": ""}, "06690": {"icao": "LSZR", "report_available": 0, "name": "Altenrhein", "lat": "47.29", "lon": "9.34", "elev": "398", "bundesland": ""}, "06693": {"icao": "----", "report_available": 0, "name": "Ebnat-Kappel", "lat": "47.16", "lon": "9.07", "elev": "623", "bundesland": ""}, "06700": {"icao": "LSGG", "report_available": 1, "name": "Genf", "lat": "46.15", "lon": "6.08", "elev": "420", "bundesland": ""}, "06702": {"icao": "----", "report_available": 0, "name": "La Dole", "lat": "46.25", "lon": "6.06", "elev": "1670", "bundesland": ""}, "06704": {"icao": "----", "report_available": 0, "name": "Biere", "lat": "46.32", "lon": "6.20", "elev": "684", "bundesland": ""}, "06705": {"icao": "----", "report_available": 0, "name": "Changins", "lat": "46.24", "lon": "6.14", "elev": "430", "bundesland": ""}, "06710": {"icao": "----", "report_available": 0, "name": "Courtelary", "lat": "47.10", "lon": "7.05", "elev": "695", "bundesland": ""}, "06711": {"icao": "----", "report_available": 0, "name": "Pully", "lat": "46.31", "lon": "6.40", "elev": "461", "bundesland": ""}, "06712": {"icao": "----", "report_available": 0, "name": "Aigle", "lat": "46.20", "lon": "6.55", "elev": "381", "bundesland": ""}, "06717": {"icao": "----", "report_available": 0, "name": "Grand-St-Bernard", "lat": "45.52", "lon": "7.10", "elev": "2472", "bundesland": ""}, "06720": {"icao": "LSGS", "report_available": 1, "name": "Sion", "lat": "46.13", "lon": "7.20", "elev": "482", "bundesland": ""}, "06722": {"icao": "----", "report_available": 0, "name": "Evolene-Villaz", "lat": "46.07", "lon": "7.31", "elev": "1825", "bundesland": ""}, "06724": {"icao": "----", "report_available": 0, "name": "Montana", "lat": "46.17", "lon": "7.27", "elev": "1423", "bundesland": ""}, "06727": {"icao": "----", "report_available": 0, "name": "Visp", "lat": "46.18", "lon": "7.50", "elev": "639", "bundesland": ""}, "06730": {"icao": "----", "report_available": 0, "name": "Jungfraujoch", "lat": "46.32", "lon": "7.59", "elev": "3571", "bundesland": ""}, "06734": {"icao": "LSMI", "report_available": 0, "name": "Interlaken", "lat": "46.40", "lon": "7.52", "elev": "580", "bundesland": ""}, "06735": {"icao": "----", "report_available": 0, "name": "Adelboden", "lat": "46.30", "lon": "7.34", "elev": "1320", "bundesland": ""}, "06744": {"icao": "----", "report_available": 0, "name": "Grimsel-Hospiz", "lat": "46.34", "lon": "8.20", "elev": "1980", "bundesland": ""}, "06745": {"icao": "----", "report_available": 0, "name": "Ulrichen", "lat": "46.30", "lon": "8.19", "elev": "1346", "bundesland": ""}, "06748": {"icao": "LSEZ", "report_available": 0, "name": "Zermatt", "lat": "46.02", "lon": "7.45", "elev": "1638", "bundesland": ""}, "06750": {"icao": "----", "report_available": 0, "name": "Guetsch", "lat": "46.39", "lon": "8.37", "elev": "2287", "bundesland": ""}, "06751": {"icao": "----", "report_available": 0, "name": "Robiei", "lat": "46.27", "lon": "8.31", "elev": "1898", "bundesland": ""}, "06753": {"icao": "----", "report_available": 0, "name": "Piotta", "lat": "46.31", "lon": "8.41", "elev": "1007", "bundesland": ""}, "06756": {"icao": "----", "report_available": 0, "name": "Comprovasco", "lat": "46.28", "lon": "8.56", "elev": "575", "bundesland": ""}, "06759": {"icao": "----", "report_available": 0, "name": "Cimetta", "lat": "46.12", "lon": "8.48", "elev": "1672", "bundesland": ""}, "06760": {"icao": "----", "report_available": 0, "name": "Locarno-Monti", "lat": "46.10", "lon": "8.47", "elev": "367", "bundesland": ""}, "06762": {"icao": "----", "report_available": 0, "name": "Cadenazzo", "lat": "46.09", "lon": "8.56", "elev": "203", "bundesland": ""}, "06770": {"icao": "----", "report_available": 0, "name": "Lugano", "lat": "46.00", "lon": "8.58", "elev": "273", "bundesland": ""}, "06771": {"icao": "----", "report_available": 0, "name": "Stabio", "lat": "45.50", "lon": "8.56", "elev": "353", "bundesland": ""}, "06775": {"icao": "LSZA", "report_available": 0, "name": "Lugano", "lat": "46.00", "lon": "8.54", "elev": "279", "bundesland": ""}, "06778": {"icao": "----", "report_available": 0, "name": "Buffalora", "lat": "46.39", "lon": "10.16", "elev": "1968", "bundesland": ""}, "06780": {"icao": "----", "report_available": 0, "name": "Weissfluhjoch", "lat": "46.50", "lon": "9.49", "elev": "2691", "bundesland": ""}, "06782": {"icao": "----", "report_available": 0, "name": "Disentis", "lat": "46.42", "lon": "8.51", "elev": "1190", "bundesland": ""}, "06783": {"icao": "----", "report_available": 0, "name": "San Bernardino", "lat": "46.28", "lon": "9.11", "elev": "1639", "bundesland": ""}, "06784": {"icao": "----", "report_available": 0, "name": "Davos", "lat": "46.49", "lon": "9.51", "elev": "1590", "bundesland": ""}, "06786": {"icao": "----", "report_available": 0, "name": "Chur", "lat": "46.52", "lon": "9.32", "elev": "556", "bundesland": ""}, "06787": {"icao": "----", "report_available": 0, "name": "Andeer", "lat": "46.37", "lon": "9.25", "elev": "989", "bundesland": ""}, "06788": {"icao": "----", "report_available": 0, "name": "Vicosoprano", "lat": "46.21", "lon": "9.37", "elev": "1089", "bundesland": ""}, "06790": {"icao": "----", "report_available": 0, "name": "Schiers", "lat": "46.58", "lon": "9.40", "elev": "626", "bundesland": ""}, "06791": {"icao": "----", "report_available": 0, "name": "Corvatsch", "lat": "46.25", "lon": "9.49", "elev": "3315", "bundesland": ""}, "06792": {"icao": "LSXM", "report_available": 0, "name": "Samedan", "lat": "46.32", "lon": "9.53", "elev": "1709", "bundesland": ""}, "06793": {"icao": "----", "report_available": 0, "name": "Valbella", "lat": "46.46", "lon": "9.33", "elev": "1569", "bundesland": ""}, "06794": {"icao": "----", "report_available": 0, "name": "Robbia", "lat": "46.21", "lon": "10.04", "elev": "1078", "bundesland": ""}, "06795": {"icao": "----", "report_available": 0, "name": "Piz Martegnas", "lat": "46.35", "lon": "9.32", "elev": "2670", "bundesland": ""}, "06796": {"icao": "----", "report_available": 0, "name": "Sta. Maria Val Muest", "lat": "46.36", "lon": "10.26", "elev": "1383", "bundesland": ""}, "06798": {"icao": "----", "report_available": 0, "name": "Scouls", "lat": "46.48", "lon": "10.16", "elev": "1298", "bundesland": ""}, "06799": {"icao": "----", "report_available": 0, "name": "Naluns / Schlivera", "lat": "46.49", "lon": "10.16", "elev": "2400", "bundesland": ""}, "06990": {"icao": "----", "report_available": 1, "name": "Vaduz Fl.", "lat": "47.08", "lon": "9.31", "elev": "460", "bundesland": ""}, "07002": {"icao": "----", "report_available": 0, "name": "Boulogne", "lat": "50.44", "lon": "1.36", "elev": "70", "bundesland": ""}, "07005": {"icao": "LFOI", "report_available": 1, "name": "Abbeville", "lat": "50.08", "lon": "1.50", "elev": "70", "bundesland": ""}, "07015": {"icao": "LFQQ", "report_available": 1, "name": "Lille", "lat": "50.34", "lon": "3.06", "elev": "48", "bundesland": ""}, "07017": {"icao": "LFQI", "report_available": 0, "name": "Cambrai", "lat": "50.13", "lon": "3.09", "elev": "77", "bundesland": ""}, "07020": {"icao": "----", "report_available": 1, "name": "La Hague", "lat": "49.43", "lon": "-1.56", "elev": "3", "bundesland": ""}, "07024": {"icao": "LFRC", "report_available": 0, "name": "Cherbourg", "lat": "49.39", "lon": "-1.28", "elev": "139", "bundesland": ""}, "07027": {"icao": "LFRK", "report_available": 1, "name": "Caen", "lat": "49.11", "lon": "-0.27", "elev": "67", "bundesland": ""}, "07028": {"icao": "LFOH", "report_available": 0, "name": "La Heve", "lat": "49.31", "lon": "0.04", "elev": "100", "bundesland": ""}, "07037": {"icao": "LFOP", "report_available": 1, "name": "Rouen", "lat": "49.23", "lon": "1.11", "elev": "157", "bundesland": ""}, "07038": {"icao": "LFOE", "report_available": 0, "name": "Evreux", "lat": "49.01", "lon": "1.13", "elev": "132", "bundesland": ""}, "07040": {"icao": "----", "report_available": 0, "name": "Dieppe", "lat": "49.56", "lon": "1.06", "elev": "33", "bundesland": ""}, "07055": {"icao": "LFOB", "report_available": 0, "name": "Beauvais", "lat": "49.28", "lon": "2.07", "elev": "106", "bundesland": ""}, "07061": {"icao": "LFOW", "report_available": 0, "name": "Saint-Quentin", "lat": "49.49", "lon": "3.12", "elev": "98", "bundesland": ""}, "07070": {"icao": "LFSR", "report_available": 0, "name": "Reims", "lat": "49.18", "lon": "4.02", "elev": "91", "bundesland": ""}, "07075": {"icao": "LFQV", "report_available": 0, "name": "Charleville", "lat": "49.47", "lon": "4.38", "elev": "149", "bundesland": ""}, "07090": {"icao": "LFSF", "report_available": 0, "name": "Metz", "lat": "49.05", "lon": "6.08", "elev": "190", "bundesland": ""}, "07093": {"icao": "----", "report_available": 0, "name": "M.N.L.", "lat": "48.59", "lon": "6.15", "elev": "260", "bundesland": ""}, "07100": {"icao": "LFEC", "report_available": 0, "name": "Ouessant", "lat": "48.28", "lon": "-5.08", "elev": "35", "bundesland": ""}, "07110": {"icao": "LFRB", "report_available": 1, "name": "Brest", "lat": "48.27", "lon": "-4.25", "elev": "99", "bundesland": ""}, "07120": {"icao": "LFRT", "report_available": 1, "name": "St.Brieuc", "lat": "48.32", "lon": "-2.51", "elev": "136", "bundesland": ""}, "07125": {"icao": "LFRD", "report_available": 0, "name": "Dinard Apt", "lat": "48.35", "lon": "-2.04", "elev": "58", "bundesland": ""}, "07130": {"icao": "LFRN", "report_available": 1, "name": "Rennes", "lat": "48.04", "lon": "-1.44", "elev": "37", "bundesland": ""}, "07133": {"icao": "----", "report_available": 0, "name": "Pointe Du Roc", "lat": "48.50", "lon": "-1.37", "elev": "37", "bundesland": ""}, "07139": {"icao": "LFOF", "report_available": 1, "name": "Alencon", "lat": "48.26", "lon": "0.06", "elev": "144", "bundesland": ""}, "07143": {"icao": "LFOR", "report_available": 0, "name": "Chartres", "lat": "48.28", "lon": "1.31", "elev": "155", "bundesland": ""}, "07149": {"icao": "LFPO", "report_available": 1, "name": "Paris", "lat": "48.44", "lon": "2.24", "elev": "89", "bundesland": ""}, "07150": {"icao": "LFPB", "report_available": 0, "name": "Paris-Le Bourget", "lat": "48.58", "lon": "2.26", "elev": "67", "bundesland": ""}, "07157": {"icao": "LFPG", "report_available": 0, "name": "Paris Ch.D.Gaulle", "lat": "49.01", "lon": "2.32", "elev": "108", "bundesland": ""}, "07166": {"icao": "LFOK", "report_available": 0, "name": "Vatry-Aero", "lat": "48.47", "lon": "4.10", "elev": "179", "bundesland": ""}, "07168": {"icao": "LFQB", "report_available": 1, "name": "Troyes", "lat": "48.20", "lon": "4.01", "elev": "112", "bundesland": ""}, "07169": {"icao": "LFSI", "report_available": 0, "name": "St. Dizier", "lat": "48.38", "lon": "4.54", "elev": "139", "bundesland": ""}, "07173": {"icao": "----", "report_available": 0, "name": "Epinal", "lat": "48.12", "lon": "6.26", "elev": "317", "bundesland": ""}, "07180": {"icao": "LFSN", "report_available": 1, "name": "Nancy", "lat": "48.41", "lon": "6.13", "elev": "229", "bundesland": ""}, "07181": {"icao": "----", "report_available": 0, "name": "Nancy-Ochey", "lat": "48.35", "lon": "5.58", "elev": "336", "bundesland": ""}, "07190": {"icao": "LFST", "report_available": 1, "name": "Strassburg", "lat": "48.33", "lon": "7.38", "elev": "153", "bundesland": ""}, "07197": {"icao": "LFSC", "report_available": 0, "name": "Colmar", "lat": "47.55", "lon": "7.24", "elev": "211", "bundesland": ""}, "07200": {"icao": "----", "report_available": 0, "name": "Penmarch", "lat": "47.48", "lon": "-4.22", "elev": "6", "bundesland": ""}, "07201": {"icao": "LFRQ", "report_available": 0, "name": "Quimper", "lat": "47.58", "lon": "-4.10", "elev": "92", "bundesland": ""}, "07205": {"icao": "LFRH", "report_available": 0, "name": "Lann Bihoue", "lat": "47.46", "lon": "-3.27", "elev": "42", "bundesland": ""}, "07222": {"icao": "LFRS", "report_available": 1, "name": "Nantes", "lat": "47.10", "lon": "-1.36", "elev": "27", "bundesland": ""}, "07235": {"icao": "LFRM", "report_available": 0, "name": "Le Mans", "lat": "47.57", "lon": "0.12", "elev": "52", "bundesland": ""}, "07240": {"icao": "LFOT", "report_available": 1, "name": "Tours", "lat": "47.27", "lon": "0.43", "elev": "108", "bundesland": ""}, "07249": {"icao": "LFOJ", "report_available": 0, "name": "Orleans", "lat": "47.59", "lon": "1.47", "elev": "125", "bundesland": ""}, "07255": {"icao": "LFLD", "report_available": 1, "name": "Bourges", "lat": "47.04", "lon": "2.22", "elev": "161", "bundesland": ""}, "07260": {"icao": "LFQG", "report_available": 0, "name": "Nevers", "lat": "47.00", "lon": "3.06", "elev": "175", "bundesland": ""}, "07265": {"icao": "LFLA", "report_available": 0, "name": "Auxerre", "lat": "47.48", "lon": "3.33", "elev": "207", "bundesland": ""}, "07280": {"icao": "LFSD", "report_available": 1, "name": "Dijon", "lat": "47.16", "lon": "5.05", "elev": "219", "bundesland": ""}, "07288": {"icao": "LFSA", "report_available": 0, "name": "Besancon", "lat": "47.15", "lon": "5.59", "elev": "307", "bundesland": ""}, "07299": {"icao": "LFSB", "report_available": 1, "name": "Basel-Mlh.", "lat": "47.36", "lon": "7.31", "elev": "270", "bundesland": ""}, "07306": {"icao": "LFRI", "report_available": 0, "name": "La Roche-Sur-Yon", "lat": "46.42", "lon": "-1.23", "elev": "90", "bundesland": ""}, "07315": {"icao": "----", "report_available": 0, "name": "La Rochelle", "lat": "46.09", "lon": "-1.09", "elev": "4", "bundesland": ""}, "07335": {"icao": "LFBI", "report_available": 1, "name": "Poitiers", "lat": "46.35", "lon": "0.18", "elev": "120", "bundesland": ""}, "07354": {"icao": "LFLX", "report_available": 0, "name": "Chateauroux", "lat": "46.52", "lon": "1.43", "elev": "155", "bundesland": ""}, "07379": {"icao": "LFLN", "report_available": 0, "name": "Saint-Yan.", "lat": "46.25", "lon": "4.01", "elev": "242", "bundesland": ""}, "07385": {"icao": "LFLM", "report_available": 0, "name": "Macon", "lat": "46.18", "lon": "4.48", "elev": "216", "bundesland": ""}, "07434": {"icao": "LFBL", "report_available": 1, "name": "Limoges", "lat": "45.52", "lon": "1.11", "elev": "402", "bundesland": ""}, "07460": {"icao": "LFLC", "report_available": 1, "name": "Clermont", "lat": "45.47", "lon": "3.10", "elev": "329", "bundesland": ""}, "07475": {"icao": "LFMH", "report_available": 0, "name": "St. Etienne", "lat": "45.32", "lon": "4.18", "elev": "402", "bundesland": ""}, "07480": {"icao": "LFLY", "report_available": 0, "name": "Lyon/Bron", "lat": "45.43", "lon": "4.57", "elev": "200", "bundesland": ""}, "07481": {"icao": "LFLL", "report_available": 1, "name": "Lyon/Satolas", "lat": "45.44", "lon": "5.05", "elev": "248", "bundesland": ""}, "07486": {"icao": "LFLS", "report_available": 0, "name": "Grenoble", "lat": "45.22", "lon": "5.20", "elev": "384", "bundesland": ""}, "07491": {"icao": "LFLB", "report_available": 0, "name": "Chambery - Aix", "lat": "45.39", "lon": "5.53", "elev": "235", "bundesland": ""}, "07497": {"icao": "----", "report_available": 0, "name": "Bourg-St-M", "lat": "45.37", "lon": "6.46", "elev": "865", "bundesland": ""}, "07510": {"icao": "LFBD", "report_available": 1, "name": "Bordeaux", "lat": "44.50", "lon": "-0.42", "elev": "49", "bundesland": ""}, "07558": {"icao": "LFCM", "report_available": 1, "name": "Millau", "lat": "44.07", "lon": "3.01", "elev": "715", "bundesland": ""}, "07577": {"icao": "LFLQ", "report_available": 1, "name": "Montelimar", "lat": "44.35", "lon": "4.44", "elev": "73", "bundesland": ""}, "07579": {"icao": "LFMO", "report_available": 0, "name": "Orange", "lat": "44.08", "lon": "4.50", "elev": "53", "bundesland": ""}, "07588": {"icao": "LFMX", "report_available": 0, "name": "St.Auban", "lat": "44.04", "lon": "6.00", "elev": "457", "bundesland": ""}, "07593": {"icao": "----", "report_available": 0, "name": "Briancon", "lat": "44.55", "lon": "6.39", "elev": "1328", "bundesland": ""}, "07600": {"icao": "----", "report_available": 0, "name": "Socoa", "lat": "43.24", "lon": "-1.41", "elev": "24", "bundesland": ""}, "07602": {"icao": "LFBZ", "report_available": 0, "name": "Biarritz", "lat": "43.28", "lon": "-1.32", "elev": "69", "bundesland": ""}, "07610": {"icao": "----", "report_available": 0, "name": "Pau", "lat": "43.23", "lon": "-0.25", "elev": "185", "bundesland": ""}, "07621": {"icao": "LFBT", "report_available": 1, "name": "Tarbes/Ossun", "lat": "43.11", "lon": "0.00", "elev": "364", "bundesland": ""}, "07622": {"icao": "LFDH", "report_available": 0, "name": "Auch", "lat": "43.41", "lon": "0.36", "elev": "121", "bundesland": ""}, "07630": {"icao": "LFBO", "report_available": 1, "name": "Toulouse", "lat": "43.38", "lon": "1.22", "elev": "152", "bundesland": ""}, "07635": {"icao": "LFMK", "report_available": 0, "name": "Carcassonne", "lat": "43.13", "lon": "2.19", "elev": "126", "bundesland": ""}, "07638": {"icao": "----", "report_available": 0, "name": "Bezier-Vias", "lat": "43.18", "lon": "3.24", "elev": "16", "bundesland": ""}, "07643": {"icao": "LFMT", "report_available": 1, "name": "Montpellier", "lat": "43.35", "lon": "3.58", "elev": "3", "bundesland": ""}, "07645": {"icao": "LFME", "report_available": 0, "name": "Nimes/Courbessac", "lat": "43.52", "lon": "4.24", "elev": "59", "bundesland": ""}, "07648": {"icao": "LFMY", "report_available": 0, "name": "Salon", "lat": "43.36", "lon": "5.06", "elev": "59", "bundesland": ""}, "07650": {"icao": "LFML", "report_available": 1, "name": "Marseille", "lat": "43.27", "lon": "5.13", "elev": "5", "bundesland": ""}, "07667": {"icao": "LFTH", "report_available": 0, "name": "Hyeres/Almanarre", "lat": "43.06", "lon": "6.09", "elev": "3", "bundesland": ""}, "07670": {"icao": "----", "report_available": 0, "name": "Porquerolles", "lat": "43.00", "lon": "6.14", "elev": "143", "bundesland": ""}, "07675": {"icao": "LFMC", "report_available": 0, "name": "Le Luc", "lat": "43.23", "lon": "6.23", "elev": "80", "bundesland": ""}, "07680": {"icao": "LFTU", "report_available": 0, "name": "St.Raphael", "lat": "43.25", "lon": "6.45", "elev": "2", "bundesland": ""}, "07684": {"icao": "LFMD", "report_available": 0, "name": "Cannes", "lat": "43.33", "lon": "6.57", "elev": "3", "bundesland": ""}, "07690": {"icao": "LFMN", "report_available": 1, "name": "Nizza", "lat": "43.39", "lon": "7.12", "elev": "4", "bundesland": ""}, "07695": {"icao": "----", "report_available": 0, "name": "Cap Ferrat", "lat": "43.41", "lon": "7.20", "elev": "138", "bundesland": ""}, "07747": {"icao": "LFMP", "report_available": 1, "name": "Perpignan", "lat": "42.44", "lon": "2.52", "elev": "43", "bundesland": ""}, "07754": {"icao": "LFKC", "report_available": 0, "name": "Calvi", "lat": "42.32", "lon": "8.48", "elev": "46", "bundesland": ""}, "07761": {"icao": "LFKJ", "report_available": 1, "name": "Ajaccio", "lat": "41.55", "lon": "8.48", "elev": "6", "bundesland": ""}, "07770": {"icao": "----", "report_available": 0, "name": "Pertusato / Corsica", "lat": "41.22", "lon": "9.11", "elev": "105", "bundesland": ""}, "07780": {"icao": "LFKF", "report_available": 0, "name": "Figari", "lat": "41.30", "lon": "9.06", "elev": "26", "bundesland": ""}, "07785": {"icao": "----", "report_available": 0, "name": "Cap Corse", "lat": "43.00", "lon": "9.22", "elev": "111", "bundesland": ""}, "07790": {"icao": "LFKB", "report_available": 1, "name": "Bastia", "lat": "42.33", "lon": "9.29", "elev": "10", "bundesland": ""}, "08001": {"icao": "LECO", "report_available": 1, "name": "La Coruna", "lat": "43.22", "lon": "-8.25", "elev": "58", "bundesland": ""}, "08009": {"icao": "----", "report_available": 0, "name": "Ribadeo", "lat": "43.32", "lon": "-7.01", "elev": "25", "bundesland": ""}, "08013": {"icao": "----", "report_available": 0, "name": "Aviles/Div.Past", "lat": "43.33", "lon": "-5.55", "elev": "10", "bundesland": ""}, "08014": {"icao": "----", "report_available": 0, "name": "Gijon", "lat": "43.32", "lon": "-5.38", "elev": "3", "bundesland": ""}, "08015": {"icao": "LEOV", "report_available": 1, "name": "Oviedo", "lat": "43.21", "lon": "-5.52", "elev": "335", "bundesland": ""}, "08021": {"icao": "LEXJ", "report_available": 0, "name": "Santander/Parayas", "lat": "43.26", "lon": "-3.49", "elev": "6", "bundesland": ""}, "08023": {"icao": "----", "report_available": 1, "name": "Santander", "lat": "43.29", "lon": "-3.48", "elev": "52", "bundesland": ""}, "08025": {"icao": "LEBB", "report_available": 0, "name": "Bilbao", "lat": "43.18", "lon": "-2.56", "elev": "42", "bundesland": ""}, "08027": {"icao": "----", "report_available": 1, "name": "San Sebastian/Iguel.", "lat": "43.18", "lon": "-2.03", "elev": "258", "bundesland": ""}, "08029": {"icao": "LESO", "report_available": 0, "name": "San Sebastian/Fuent.", "lat": "43.21", "lon": "-1.48", "elev": "5", "bundesland": ""}, "08040": {"icao": "----", "report_available": 0, "name": "Fisterra", "lat": "42.56", "lon": "-9.17", "elev": "98", "bundesland": ""}, "08042": {"icao": "LEST", "report_available": 0, "name": "Santiago", "lat": "42.54", "lon": "-8.26", "elev": "370", "bundesland": ""}, "08045": {"icao": "LEVX", "report_available": 1, "name": "Vigo/Peinador", "lat": "42.13", "lon": "-8.38", "elev": "264", "bundesland": ""}, "08055": {"icao": "LELN", "report_available": 1, "name": "Leon", "lat": "42.35", "lon": "-5.39", "elev": "926", "bundesland": ""}, "08075": {"icao": "----", "report_available": 1, "name": "Burgos-Villafria", "lat": "42.22", "lon": "-3.38", "elev": "894", "bundesland": ""}, "08080": {"icao": "----", "report_available": 0, "name": "Vitoria Observatori", "lat": "42.52", "lon": "-2.44", "elev": "513", "bundesland": ""}, "08140": {"icao": "LEVD", "report_available": 0, "name": "Valladolid", "lat": "41.43", "lon": "-4.51", "elev": "849", "bundesland": ""}, "08141": {"icao": "----", "report_available": 1, "name": "Valladolid", "lat": "41.38", "lon": "-4.45", "elev": "735", "bundesland": ""}, "08160": {"icao": "LEZG", "report_available": 1, "name": "Zaragoza", "lat": "41.40", "lon": "-1.01", "elev": "263", "bundesland": ""}, "08171": {"icao": "----", "report_available": 1, "name": "Lerida", "lat": "41.37", "lon": "0.38", "elev": "203", "bundesland": ""}, "08175": {"icao": "LERS", "report_available": 0, "name": "Reus", "lat": "41.09", "lon": "1.10", "elev": "71", "bundesland": ""}, "08181": {"icao": "LEBL", "report_available": 1, "name": "Barcelona", "lat": "41.17", "lon": "2.04", "elev": "4", "bundesland": ""}, "08183": {"icao": "LELL", "report_available": 0, "name": "Sabadell", "lat": "41.31", "lon": "2.07", "elev": "148", "bundesland": ""}, "08184": {"icao": "LEGE", "report_available": 1, "name": "Gerona/Cost.Brava", "lat": "41.54", "lon": "2.46", "elev": "143", "bundesland": ""}, "08202": {"icao": "LESA", "report_available": 1, "name": "Salamanca/Matacan", "lat": "40.57", "lon": "-5.30", "elev": "793", "bundesland": ""}, "08221": {"icao": "LEMD", "report_available": 1, "name": "Madrid/Barajas", "lat": "40.27", "lon": "-3.33", "elev": "609", "bundesland": ""}, "08227": {"icao": "LETO", "report_available": 0, "name": "Madrid", "lat": "40.29", "lon": "-3.27", "elev": "607", "bundesland": ""}, "08272": {"icao": "----", "report_available": 1, "name": "Toledo Buenavista", "lat": "39.53", "lon": "-4.03", "elev": "451", "bundesland": ""}, "08280": {"icao": "LEAB", "report_available": 1, "name": "Albacete/Los Llanos", "lat": "38.57", "lon": "-1.51", "elev": "702", "bundesland": ""}, "08284": {"icao": "LEVC", "report_available": 1, "name": "Valencia", "lat": "39.30", "lon": "-0.28", "elev": "69", "bundesland": ""}, "08286": {"icao": "LECN", "report_available": 0, "name": "Castellon De La Plan", "lat": "39.57", "lon": "0.04", "elev": "36", "bundesland": ""}, "08306": {"icao": "LEPA", "report_available": 1, "name": "Palma", "lat": "39.33", "lon": "2.44", "elev": "4", "bundesland": ""}, "08307": {"icao": "----", "report_available": 0, "name": "Pollensa", "lat": "39.54", "lon": "3.06", "elev": "2", "bundesland": ""}, "08314": {"icao": "LEMH", "report_available": 1, "name": "Menorca", "lat": "39.52", "lon": "4.14", "elev": "87", "bundesland": ""}, "08330": {"icao": "LEBZ", "report_available": 1, "name": "Badajoz/Talavera", "lat": "38.53", "lon": "-6.49", "elev": "185", "bundesland": ""}, "08360": {"icao": "LEAL", "report_available": 1, "name": "Alicante", "lat": "38.17", "lon": "-0.33", "elev": "43", "bundesland": ""}, "08370": {"icao": "----", "report_available": 0, "name": "Javea/Yuntamien", "lat": "38.47", "lon": "-0.10", "elev": "15", "bundesland": ""}, "08373": {"icao": "LEIB", "report_available": 1, "name": "Ibiza", "lat": "38.52", "lon": "1.23", "elev": "17", "bundesland": ""}, "08383": {"icao": "----", "report_available": 0, "name": "Huelva", "lat": "37.17", "lon": "-6.55", "elev": "19", "bundesland": ""}, "08390": {"icao": "LEZL", "report_available": 0, "name": "Sevilla", "lat": "37.22", "lon": "-6.00", "elev": "8", "bundesland": ""}, "08391": {"icao": "----", "report_available": 1, "name": "Sevilla/San Pablo", "lat": "37.25", "lon": "-5.53", "elev": "34", "bundesland": ""}, "08397": {"icao": "LEMO", "report_available": 0, "name": "Moron De La Frontera", "lat": "37.09", "lon": "-5.37", "elev": "87", "bundesland": ""}, "08410": {"icao": "LEBA", "report_available": 1, "name": "Cordoba", "lat": "37.51", "lon": "-4.51", "elev": "90", "bundesland": ""}, "08419": {"icao": "LEGR", "report_available": 1, "name": "Granada/Aeropuerto", "lat": "37.11", "lon": "-3.47", "elev": "567", "bundesland": ""}, "08430": {"icao": "----", "report_available": 1, "name": "Murcia", "lat": "38.00", "lon": "-1.10", "elev": "61", "bundesland": ""}, "08432": {"icao": "----", "report_available": 0, "name": "Aguilas", "lat": "37.25", "lon": "-1.35", "elev": "33", "bundesland": ""}, "08433": {"icao": "LELC", "report_available": 0, "name": "Murcia/San Javier", "lat": "37.47", "lon": "-0.48", "elev": "5", "bundesland": ""}, "08451": {"icao": "LEJR", "report_available": 1, "name": "Jerez De La Frontera", "lat": "36.45", "lon": "-6.04", "elev": "27", "bundesland": ""}, "08482": {"icao": "LEMG", "report_available": 1, "name": "Malaga", "lat": "36.40", "lon": "-4.29", "elev": "16", "bundesland": ""}, "08485": {"icao": "----", "report_available": 0, "name": "Motril/Club Nautico", "lat": "36.43", "lon": "-3.32", "elev": "3", "bundesland": ""}, "08487": {"icao": "LEAM", "report_available": 1, "name": "Almeria", "lat": "36.51", "lon": "-2.23", "elev": "15", "bundesland": ""}, "08495": {"icao": "LXGB", "report_available": 0, "name": "Gibraltar", "lat": "36.09", "lon": "-5.21", "elev": "5", "bundesland": ""}, "08501": {"icao": "LPFL", "report_available": 1, "name": "Flores/Azoren", "lat": "39.27", "lon": "-31.08", "elev": "28", "bundesland": ""}, "08505": {"icao": "LPHR", "report_available": 1, "name": "Azoren", "lat": "38.31", "lon": "-28.43", "elev": "40", "bundesland": ""}, "08509": {"icao": "LPLA", "report_available": 1, "name": "Lajes/Azoren", "lat": "38.46", "lon": "-27.06", "elev": "52", "bundesland": ""}, "08513": {"icao": "----", "report_available": 0, "name": "Ponta Delgada", "lat": "37.45", "lon": "-25.40", "elev": "35", "bundesland": ""}, "08515": {"icao": "LPAZ", "report_available": 1, "name": "Santa Maria", "lat": "36.58", "lon": "-25.10", "elev": "100", "bundesland": ""}, "08521": {"icao": "LPFU", "report_available": 1, "name": "Funchal", "lat": "32.41", "lon": "-16.46", "elev": "58", "bundesland": ""}, "08532": {"icao": "LPST", "report_available": 0, "name": "Sintra/Granja", "lat": "38.50", "lon": "-9.20", "elev": "134", "bundesland": ""}, "08536": {"icao": "LPPT", "report_available": 0, "name": "Lissabon", "lat": "38.47", "lon": "-9.08", "elev": "114", "bundesland": ""}, "08538": {"icao": "----", "report_available": 0, "name": "Sagres", "lat": "37.00", "lon": "-8.57", "elev": "25", "bundesland": ""}, "08540": {"icao": "LPMR", "report_available": 1, "name": "Monte Real", "lat": "39.50", "lon": "-8.53", "elev": "52", "bundesland": ""}, "08541": {"icao": "----", "report_available": 1, "name": "Sines (Montes Chaos)", "lat": "37.57", "lon": "-8.50", "elev": "98", "bundesland": ""}, "08545": {"icao": "LPPR", "report_available": 1, "name": "Porto", "lat": "41.14", "lon": "-8.41", "elev": "69", "bundesland": ""}, "08546": {"icao": "----", "report_available": 0, "name": "Porto/Serra Do Pilar", "lat": "41.08", "lon": "-8.36", "elev": "93", "bundesland": ""}, "08547": {"icao": "----", "report_available": 0, "name": "Aveiro", "lat": "40.39", "lon": "-8.44", "elev": "8", "bundesland": ""}, "08548": {"icao": "LPCO", "report_available": 1, "name": "Coimbra/Cervache", "lat": "40.09", "lon": "-8.28", "elev": "179", "bundesland": ""}, "08551": {"icao": "----", "report_available": 0, "name": "Viana Do Castelo", "lat": "41.38", "lon": "-8.48", "elev": "48", "bundesland": ""}, "08554": {"icao": "LPFR", "report_available": 1, "name": "Faro", "lat": "37.01", "lon": "-7.58", "elev": "7", "bundesland": ""}, "08562": {"icao": "----", "report_available": 0, "name": "Beja", "lat": "38.01", "lon": "-7.52", "elev": "246", "bundesland": ""}, "08567": {"icao": "LPVR", "report_available": 1, "name": "Vila Real", "lat": "41.16", "lon": "-7.43", "elev": "561", "bundesland": ""}, "08571": {"icao": "----", "report_available": 1, "name": "Portalegre", "lat": "39.17", "lon": "-7.25", "elev": "467", "bundesland": ""}, "08579": {"icao": "----", "report_available": 1, "name": "Lisboa/Gago Coutinho", "lat": "38.46", "lon": "-9.08", "elev": "104", "bundesland": ""}, "08589": {"icao": "----", "report_available": 0, "name": "Cap Verden/Praia", "lat": "14.54", "lon": "-23.31", "elev": "27", "bundesland": ""}, "08594": {"icao": "GVAC", "report_available": 0, "name": "Sal", "lat": "16.44", "lon": "-22.57", "elev": "54", "bundesland": ""}, "10004": {"icao": "----", "report_available": 1, "name": "Ufs Tw Ems", "lat": "54.10", "lon": "6.21", "elev": "0", "bundesland": ""}, "10007": {"icao": "----", "report_available": 1, "name": "Ufs Deutsche Bucht", "lat": "54.10", "lon": "7.27", "elev": "0", "bundesland": ""}, "10015": {"icao": "----", "report_available": 1, "name": "Welling", "lat": "50.333", "lon": "7.317", "elev": "200", "bundesland": "RP"}, "10018": {"icao": "EDXW", "report_available": 0, "name": "Westerland", "lat": "54.55", "lon": "8.21", "elev": "22", "bundesland": ""}, "10020": {"icao": "----", "report_available": 1, "name": "List auf Sylt", "lat": "55.011", "lon": "8.4125", "elev": "25", "bundesland": "SH"}, "10022": {"icao": "EDXK", "report_available": 1, "name": "Leck", "lat": "54.7903", "lon": "8.9514", "elev": "7", "bundesland": "SH"}, "10026": {"icao": "----", "report_available": 0, "name": "Husum", "lat": "54.31", "lon": "9.09", "elev": "28", "bundesland": ""}, "10028": {"icao": "----", "report_available": 1, "name": "Sankt Peter-Ording", "lat": "54.3279", "lon": "8.6031", "elev": "5", "bundesland": "SH"}, "10033": {"icao": "ETGG", "report_available": 1, "name": "Glücksburg-Meierwik", "lat": "54.8273", "lon": "9.5058", "elev": "12", "bundesland": "SH"}, "10034": {"icao": "ETME", "report_available": 0, "name": "Eggebek", "lat": "54.38", "lon": "9.21", "elev": "20", "bundesland": ""}, "10035": {"icao": "----", "report_available": 1, "name": "Schleswig", "lat": "54.528", "lon": "9.549", "elev": "43", "bundesland": "SH"}, "10037": {"icao": "ETNS", "report_available": 1, "name": "Schleswig-Jagel", "lat": "54.457", "lon": "9.5203", "elev": "21", "bundesland": "SH"}, "10038": {"icao": "ETNH", "report_available": 1, "name": "Hohn", "lat": "54.3162", "lon": "9.5385", "elev": "10", "bundesland": "SH"}, "10042": {"icao": "----", "report_available": 1, "name": "Schönhagen (Ostseebad)", "lat": "54.641", "lon": "10.0238", "elev": "1", "bundesland": "SH"}, "10044": {"icao": "----", "report_available": 1, "name": "Leuchtturm Kiel", "lat": "54.4996", "lon": "10.2737", "elev": "0", "bundesland": "SH"}, "10046": {"icao": "EDHK", "report_available": 1, "name": "Kiel-Holtenau", "lat": "54.3776", "lon": "10.1424", "elev": "28", "bundesland": "SH"}, "10055": {"icao": "----", "report_available": 1, "name": "Fehmarn", "lat": "54.5283", "lon": "11.0606", "elev": "3", "bundesland": "SH"}, "10063": {"icao": "----", "report_available": 0, "name": "Puttgarden", "lat": "54.30", "lon": "11.13", "elev": "1", "bundesland": ""}, "10091": {"icao": "----", "report_available": 1, "name": "Arkona", "lat": "54.6791", "lon": "13.4344", "elev": "42", "bundesland": "MV"}, "10093": {"icao": "----", "report_available": 1, "name": "Putbus", "lat": "54.3643", "lon": "13.4771", "elev": "40", "bundesland": "MV"}, "10097": {"icao": "----", "report_available": 1, "name": "Greifswalder Oie", "lat": "54.2437", "lon": "13.9102", "elev": "12", "bundesland": "MV"}, "10113": {"icao": "----", "report_available": 1, "name": "Norderney", "lat": "53.7123", "lon": "7.1519", "elev": "12", "bundesland": "NI"}, "10122": {"icao": "ETNJ", "report_available": 0, "name": "Jever", "lat": "53.32", "lon": "7.53", "elev": "7", "bundesland": ""}, "10124": {"icao": "----", "report_available": 1, "name": "Leuchtturm Alte Weser", "lat": "53.8633", "lon": "8.1275", "elev": "0", "bundesland": "NI"}, "10125": {"icao": "EDWI", "report_available": 0, "name": "Wilhelmshaven", "lat": "53.30", "lon": "8.03", "elev": "5", "bundesland": ""}, "10126": {"icao": "ETNT", "report_available": 1, "name": "Wittmundhafen", "lat": "53.5503", "lon": "7.6672", "elev": "10", "bundesland": "NI"}, "10129": {"icao": "----", "report_available": 1, "name": "Bremerhaven", "lat": "53.5332", "lon": "8.5761", "elev": "7", "bundesland": "HB"}, "10130": {"icao": "----", "report_available": 1, "name": "Elpersbüttel", "lat": "54.0691", "lon": "9.0105", "elev": "3", "bundesland": "SH"}, "10131": {"icao": "----", "report_available": 1, "name": "Cuxhaven", "lat": "53.8713", "lon": "8.706", "elev": "5", "bundesland": "NI"}, "10136": {"icao": "ETMN", "report_available": 1, "name": "Nordholz (Flugplatz)", "lat": "53.7647", "lon": "8.6584", "elev": "26", "bundesland": "NI"}, "10139": {"icao": "----", "report_available": 1, "name": "Bremervörde", "lat": "53.4451", "lon": "9.139", "elev": "11", "bundesland": "NI"}, "10142": {"icao": "ETHI", "report_available": 1, "name": "Itzehoe", "lat": "53.9897", "lon": "9.5697", "elev": "20", "bundesland": "SH"}, "10143": {"icao": "----", "report_available": 0, "name": "Neumuenster", "lat": "54.05", "lon": "9.56", "elev": "20", "bundesland": ""}, "10146": {"icao": "----", "report_available": 1, "name": "Quickborn", "lat": "53.7331", "lon": "9.8776", "elev": "11", "bundesland": "SH"}, "10147": {"icao": "EDDH", "report_available": 1, "name": "Hamburg-Fuhlsbüttel", "lat": "53.633", "lon": "9.988", "elev": "11", "bundesland": "HH"}, "10150": {"icao": "----", "report_available": 1, "name": "Dörnick", "lat": "54.1654", "lon": "10.3519", "elev": "27", "bundesland": "SH"}, "10152": {"icao": "----", "report_available": 1, "name": "Pelzerhaken", "lat": "54.0893", "lon": "10.8773", "elev": "2", "bundesland": "SH"}, "10156": {"icao": "EDHL", "report_available": 1, "name": "Lübeck-Blankensee", "lat": "53.8025", "lon": "10.6989", "elev": "15", "bundesland": "SH"}, "10161": {"icao": "----", "report_available": 1, "name": "Boltenhagen", "lat": "54.0027", "lon": "11.1908", "elev": "15", "bundesland": "MV"}, "10162": {"icao": "----", "report_available": 1, "name": "Schwerin", "lat": "53.6424", "lon": "11.3871", "elev": "59", "bundesland": "MV"}, "10168": {"icao": "----", "report_available": 1, "name": "Goldberg", "lat": "53.6058", "lon": "12.1034", "elev": "59", "bundesland": "MV"}, "10170": {"icao": "----", "report_available": 1, "name": "Rostock-Warnemünde", "lat": "54.1803", "lon": "12.0808", "elev": "5", "bundesland": "MV"}, "10172": {"icao": "ETNL", "report_available": 1, "name": "Laage (Flugplatz)", "lat": "53.9156", "lon": "12.279", "elev": "41", "bundesland": "MV"}, "10177": {"icao": "----", "report_available": 0, "name": "Teterow", "lat": "53.46", "lon": "12.37", "elev": "50", "bundesland": ""}, "10180": {"icao": "----", "report_available": 1, "name": "Barth", "lat": "54.3405", "lon": "12.7108", "elev": "3", "bundesland": "MV"}, "10181": {"icao": "EDCP", "report_available": 0, "name": "Parow", "lat": "54.22", "lon": "13.05", "elev": "4", "bundesland": ""}, "10184": {"icao": "----", "report_available": 1, "name": "Greifswald", "lat": "54.0967", "lon": "13.4056", "elev": "2", "bundesland": "MV"}, "10193": {"icao": "----", "report_available": 1, "name": "Ueckermünde", "lat": "53.7445", "lon": "14.0698", "elev": "1", "bundesland": "MV"}, "10200": {"icao": "----", "report_available": 1, "name": "Emden", "lat": "53.3881", "lon": "7.2287", "elev": "0", "bundesland": "NI"}, "10203": {"icao": "----", "report_available": 0, "name": "Emden", "lat": "53.21", "lon": "7.12", "elev": "5", "bundesland": ""}, "10210": {"icao": "----", "report_available": 1, "name": "Friesoythe-Altenoythe", "lat": "53.0643", "lon": "7.902", "elev": "6", "bundesland": "NI"}, "10215": {"icao": "EDWH", "report_available": 0, "name": "Oldenburg", "lat": "53.11", "lon": "8.10", "elev": "11", "bundesland": ""}, "10218": {"icao": "ETNA", "report_available": 0, "name": "Ahlhorn", "lat": "52.53", "lon": "8.14", "elev": "49", "bundesland": ""}, "10224": {"icao": "EDDW", "report_available": 1, "name": "Bremen", "lat": "53.0451", "lon": "8.7981", "elev": "4", "bundesland": "HB"}, "10234": {"icao": "ETGQ", "report_available": 0, "name": "Rotenburg", "lat": "53.08", "lon": "9.21", "elev": "34", "bundesland": ""}, "10235": {"icao": "----", "report_available": 1, "name": "Soltau", "lat": "52.9604", "lon": "9.793", "elev": "75", "bundesland": "NI"}, "10238": {"icao": "ETGB", "report_available": 1, "name": "Bergen", "lat": "52.8152", "lon": "9.9248", "elev": "69", "bundesland": "NI"}, "10246": {"icao": "ETHS", "report_available": 1, "name": "Faßberg", "lat": "52.9157", "lon": "10.1885", "elev": "76", "bundesland": "NI"}, "10249": {"icao": "----", "report_available": 1, "name": "Boizenburg", "lat": "53.3911", "lon": "10.6878", "elev": "45", "bundesland": "MV"}, "10253": {"icao": "----", "report_available": 1, "name": "Lüchow", "lat": "52.9724", "lon": "11.1374", "elev": "16", "bundesland": "NI"}, "10261": {"icao": "----", "report_available": 1, "name": "Seehausen", "lat": "52.8911", "lon": "11.7297", "elev": "21", "bundesland": "ST"}, "10264": {"icao": "----", "report_available": 1, "name": "Marnitz", "lat": "53.3222", "lon": "11.9321", "elev": "81", "bundesland": "MV"}, "10267": {"icao": "----", "report_available": 1, "name": "Kyritz", "lat": "52.9362", "lon": "12.4093", "elev": "40", "bundesland": "BB"}, "10268": {"icao": "----", "report_available": 1, "name": "Waren (Müritz)", "lat": "53.5196", "lon": "12.6654", "elev": "73", "bundesland": "MV"}, "10270": {"icao": "----", "report_available": 0, "name": "Neuruppin", "lat": "52.54", "lon": "12.49", "elev": "38", "bundesland": ""}, "10271": {"icao": "----", "report_available": 1, "name": "Neuruppin-Alt Ruppin", "lat": "52.9437", "lon": "12.8518", "elev": "50", "bundesland": "BB"}, "10272": {"icao": "ETGW", "report_available": 0, "name": "Wittstock", "lat": "53.11", "lon": "12.31", "elev": "72", "bundesland": ""}, "10273": {"icao": "EDCJ", "report_available": 0, "name": "Basepohl", "lat": "53.44", "lon": "12.56", "elev": "53", "bundesland": ""}, "10277": {"icao": "----", "report_available": 0, "name": "Neuglobsow", "lat": "53.09", "lon": "13.02", "elev": "62", "bundesland": ""}, "10280": {"icao": "----", "report_available": 0, "name": "Neubrandenburg", "lat": "53.33", "lon": "13.12", "elev": "81", "bundesland": ""}, "10281": {"icao": "ETNU", "report_available": 1, "name": "Trollenhagen", "lat": "53.5998", "lon": "13.3039", "elev": "68", "bundesland": "MV"}, "10282": {"icao": "----", "report_available": 1, "name": "Feldberg/Mecklenburg", "lat": "53.3176", "lon": "13.4175", "elev": "115", "bundesland": "MV"}, "10289": {"icao": "----", "report_available": 1, "name": "Grünow", "lat": "53.3154", "lon": "13.9339", "elev": "56", "bundesland": "BB"}, "10291": {"icao": "----", "report_available": 1, "name": "Angermünde", "lat": "53.0316", "lon": "13.9908", "elev": "54", "bundesland": "BB"}, "10303": {"icao": "----", "report_available": 0, "name": "Lingen-Baccum", "lat": "52.5126", "lon": "7.4131", "elev": "40", "bundesland": "NI"}, "10306": {"icao": "ETHE", "report_available": 0, "name": "Rheine-Bentlage", "lat": "52.18", "lon": "7.23", "elev": "40", "bundesland": ""}, "10308": {"icao": "----", "report_available": 0, "name": "Nordhorn", "lat": "52.33", "lon": "7.10", "elev": "24", "bundesland": ""}, "10309": {"icao": "----", "report_available": 1, "name": "Ahaus", "lat": "52.0813", "lon": "6.9409", "elev": "46", "bundesland": "NW"}, "10312": {"icao": "----", "report_available": 1, "name": "Belm", "lat": "52.317", "lon": "8.1694", "elev": "103", "bundesland": "NI"}, "10314": {"icao": "ETNP", "report_available": 0, "name": "Hopsten", "lat": "52.20", "lon": "7.33", "elev": "39", "bundesland": ""}, "10315": {"icao": "EDDG", "report_available": 1, "name": "Münster/Osnabrück", "lat": "52.1344", "lon": "7.6969", "elev": "48", "bundesland": "NW"}, "10317": {"icao": "----", "report_available": 0, "name": "Osnabrueck", "lat": "52.15", "lon": "8.03", "elev": "95", "bundesland": ""}, "10320": {"icao": "ETUO", "report_available": 0, "name": "Guetersloh", "lat": "51.55", "lon": "8.18", "elev": "72", "bundesland": ""}, "10321": {"icao": "ETND", "report_available": 1, "name": "Diepholz", "lat": "52.5881", "lon": "8.3424", "elev": "38", "bundesland": "NI"}, "10324": {"icao": "----", "report_available": 0, "name": "Minden", "lat": "52.19", "lon": "8.51", "elev": "59", "bundesland": ""}, "10325": {"icao": "----", "report_available": 1, "name": "Salzuflen, Bad", "lat": "52.1042", "lon": "8.7521", "elev": "135", "bundesland": "NW"}, "10326": {"icao": "EDLI", "report_available": 0, "name": "Bielefeld", "lat": "51.58", "lon": "8.33", "elev": "138", "bundesland": ""}, "10334": {"icao": "ETNW", "report_available": 1, "name": "Wunstorf", "lat": "52.4626", "lon": "9.4245", "elev": "49", "bundesland": "NI"}, "10335": {"icao": "ETHB", "report_available": 1, "name": "Bückeburg (Flugplatz)", "lat": "52.2817", "lon": "9.089", "elev": "68", "bundesland": "NI"}, "10338": {"icao": "EDDV", "report_available": 1, "name": "Hannover", "lat": "52.4644", "lon": "9.6779", "elev": "55", "bundesland": "NI"}, "10343": {"icao": "ETHC", "report_available": 1, "name": "Celle (Flugplatz)", "lat": "52.5959", "lon": "10.0296", "elev": "45", "bundesland": "NI"}, "10348": {"icao": "----", "report_available": 1, "name": "Braunschweig", "lat": "52.2915", "lon": "10.4464", "elev": "81", "bundesland": "NI"}, "10356": {"icao": "----", "report_available": 1, "name": "Ummendorf", "lat": "52.1601", "lon": "11.1759", "elev": "159", "bundesland": "ST"}, "10359": {"icao": "----", "report_available": 1, "name": "Gardelegen", "lat": "52.5129", "lon": "11.3942", "elev": "47", "bundesland": "ST"}, "10361": {"icao": "EDBM", "report_available": 1, "name": "Magdeburg", "lat": "52.1029", "lon": "11.5827", "elev": "79", "bundesland": "ST"}, "10365": {"icao": "----", "report_available": 1, "name": "Genthin", "lat": "52.3875", "lon": "12.1602", "elev": "35", "bundesland": "ST"}, "10368": {"icao": "----", "report_available": 1, "name": "Wiesenburg", "lat": "52.1206", "lon": "12.4586", "elev": "187", "bundesland": "BB"}, "10376": {"icao": "----", "report_available": 1, "name": "Baruth", "lat": "52.0613", "lon": "13.4997", "elev": "55", "bundesland": "BB"}, "10379": {"icao": "----", "report_available": 1, "name": "Potsdam", "lat": "52.381", "lon": "13.062", "elev": "81", "bundesland": "BB"}, "10381": {"icao": "----", "report_available": 1, "name": "Berlin-Dahlem (FU)", "lat": "52.454", "lon": "13.302", "elev": "51", "bundesland": "BE"}, "10382": {"icao": "EDDT", "report_available": 1, "name": "Berlin-Tegel", "lat": "52.34", "lon": "13.19", "elev": "37", "bundesland": ""}, "10384": {"icao": "EDDI", "report_available": 1, "name": "Berlin-Tempelhof", "lat": "52.4676", "lon": "13.402", "elev": "48", "bundesland": "BE"}, "10385": {"icao": "EDDB", "report_available": 1, "name": "Berlin Brandenburg", "lat": "52.3807", "lon": "13.5306", "elev": "46", "bundesland": "BB"}, "10389": {"icao": "----", "report_available": 0, "name": "Heidenheim/Brenz (Ph)", "lat": "48.683", "lon": "10.167", "elev": "570", "bundesland": "BW"}, "10393": {"icao": "----", "report_available": 1, "name": "Lindenberg", "lat": "52.209", "lon": "14.118", "elev": "98", "bundesland": "BB"}, "10396": {"icao": "----", "report_available": 1, "name": "Manschnow", "lat": "52.5468", "lon": "14.5453", "elev": "12", "bundesland": "BB"}, "10400": {"icao": "EDDL", "report_available": 1, "name": "Düsseldorf", "lat": "51.296", "lon": "6.7686", "elev": "37", "bundesland": "NW"}, "10401": {"icao": "ETUR", "report_available": 0, "name": "Brueggen", "lat": "51.12", "lon": "6.08", "elev": "73", "bundesland": ""}, "10403": {"icao": "EDLN", "report_available": 0, "name": "Moenchengladbach", "lat": "51.14", "lon": "6.30", "elev": "37", "bundesland": ""}, "10404": {"icao": "ETGY", "report_available": 0, "name": "Kalkar", "lat": "51.44", "lon": "6.16", "elev": "27", "bundesland": ""}, "10405": {"icao": "EDLV", "report_available": 0, "name": "Niederrhein", "lat": "51.36", "lon": "6.09", "elev": "32", "bundesland": ""}, "10406": {"icao": "----", "report_available": 0, "name": "Bocholt", "lat": "51.50", "lon": "6.32", "elev": "21", "bundesland": ""}, "10410": {"icao": "----", "report_available": 1, "name": "Essen-Bredeney", "lat": "51.4041", "lon": "6.9677", "elev": "150", "bundesland": "NW"}, "10416": {"icao": "EDLW", "report_available": 0, "name": "Dortmund", "lat": "51.31", "lon": "7.37", "elev": "127", "bundesland": ""}, "10418": {"icao": "----", "report_available": 1, "name": "Lüdenscheid", "lat": "51.2452", "lon": "7.6425", "elev": "387", "bundesland": "NW"}, "10424": {"icao": "----", "report_available": 1, "name": "Werl", "lat": "51.5763", "lon": "7.8879", "elev": "85", "bundesland": "NW"}, "10426": {"icao": "EDLP", "report_available": 0, "name": "Paderborn", "lat": "51.37", "lon": "8.37", "elev": "213", "bundesland": ""}, "10427": {"icao": "----", "report_available": 1, "name": "Kahler Asten", "lat": "51.1803", "lon": "8.4891", "elev": "839", "bundesland": "NW"}, "10430": {"icao": "----", "report_available": 1, "name": "Lippspringe, Bad", "lat": "51.7854", "lon": "8.8388", "elev": "157", "bundesland": "NW"}, "10432": {"icao": "----", "report_available": 0, "name": "Bönnigheim (Ph)", "lat": "49.05", "lon": "9.1", "elev": "220", "bundesland": "BW"}, "10433": {"icao": "----", "report_available": 1, "name": "Lügde-Paenbruch", "lat": "51.8664", "lon": "9.271", "elev": "258", "bundesland": "NW"}, "10435": {"icao": "----", "report_available": 1, "name": "Warburg", "lat": "51.5039", "lon": "9.1118", "elev": "236", "bundesland": "NW"}, "10438": {"icao": "----", "report_available": 0, "name": "Kassel", "lat": "51.18", "lon": "9.27", "elev": "231", "bundesland": ""}, "10439": {"icao": "ETHF", "report_available": 1, "name": "Fritzlar (Flugplatz)", "lat": "51.119", "lon": "9.2799", "elev": "172", "bundesland": "HE"}, "10441": {"icao": "----", "report_available": 1, "name": "Schauenburg-Elgershausen", "lat": "51.2835", "lon": "9.359", "elev": "317", "bundesland": "HE"}, "10442": {"icao": "----", "report_available": 1, "name": "Alfeld", "lat": "51.9643", "lon": "9.8072", "elev": "144", "bundesland": "NI"}, "10444": {"icao": "----", "report_available": 1, "name": "Göttingen", "lat": "51.5002", "lon": "9.9507", "elev": "167", "bundesland": "NI"}, "10449": {"icao": "----", "report_available": 1, "name": "Mergentheim, Bad", "lat": "49.483", "lon": "9.767", "elev": "250", "bundesland": "BW"}, "10452": {"icao": "----", "report_available": 1, "name": "Braunlage", "lat": "51.7234", "lon": "10.6021", "elev": "607", "bundesland": "NI"}, "10453": {"icao": "----", "report_available": 1, "name": "Brocken", "lat": "51.799", "lon": "10.618", "elev": "1135", "bundesland": "ST"}, "10454": {"icao": "----", "report_available": 1, "name": "Wernigerode", "lat": "51.8454", "lon": "10.7686", "elev": "233", "bundesland": "ST"}, "10457": {"icao": "----", "report_available": 0, "name": "Cochstedt", "lat": "51.51", "lon": "11.25", "elev": "162", "bundesland": ""}, "10458": {"icao": "----", "report_available": 1, "name": "Kirchheim unter Teck", "lat": "48.65", "lon": "9.467", "elev": "310", "bundesland": "BW"}, "10460": {"icao": "----", "report_available": 1, "name": "Artern", "lat": "51.3744", "lon": "11.292", "elev": "164", "bundesland": "TH"}, "10466": {"icao": "----", "report_available": 0, "name": "Halle", "lat": "51.31", "lon": "11.57", "elev": "96", "bundesland": ""}, "10469": {"icao": "EDDP", "report_available": 1, "name": "Leipzig/Halle", "lat": "51.4347", "lon": "12.2396", "elev": "131", "bundesland": "SN"}, "10471": {"icao": "----", "report_available": 1, "name": "Leipzig-Holzhausen", "lat": "51.3151", "lon": "12.4462", "elev": "138", "bundesland": "SN"}, "10474": {"icao": "----", "report_available": 1, "name": "Wittenberg", "lat": "51.8891", "lon": "12.6446", "elev": "105", "bundesland": "ST"}, "10476": {"icao": "ETSH", "report_available": 1, "name": "Holzdorf (Flugplatz)", "lat": "51.7657", "lon": "13.1666", "elev": "80", "bundesland": "BB"}, "10480": {"icao": "----", "report_available": 1, "name": "Oschatz", "lat": "51.296", "lon": "13.0928", "elev": "150", "bundesland": "SN"}, "10487": {"icao": "----", "report_available": 0, "name": "Vellberg", "lat": "49.083", "lon": "9.883", "elev": "370", "bundesland": "BW"}, "10488": {"icao": "EDDC", "report_available": 1, "name": "Dresden-Klotzsche", "lat": "51.1278", "lon": "13.7543", "elev": "228", "bundesland": "SN"}, "10490": {"icao": "----", "report_available": 1, "name": "Doberlug-Kirchhain", "lat": "51.6451", "lon": "13.5747", "elev": "97", "bundesland": "BB"}, "10492": {"icao": "ETHT", "report_available": 0, "name": "Cottbus/Flugplatz", "lat": "51.46", "lon": "14.17", "elev": "68", "bundesland": ""}, "10493": {"icao": "JORG", "report_available": 0, "name": "Preschen", "lat": "51.40", "lon": "14.38", "elev": "100", "bundesland": ""}, "10495": {"icao": "----", "report_available": 1, "name": "Hoyerswerda", "lat": "51.4492", "lon": "14.2533", "elev": "116", "bundesland": "SN"}, "10496": {"icao": "ETCO", "report_available": 1, "name": "Cottbus", "lat": "51.7759", "lon": "14.3168", "elev": "69", "bundesland": "BB"}, "10499": {"icao": "EDBX", "report_available": 1, "name": "Görlitz", "lat": "51.162", "lon": "14.951", "elev": "239", "bundesland": "SN"}, "10500": {"icao": "ETNG", "report_available": 1, "name": "Geilenkirchen (Flugplatz)", "lat": "50.9593", "lon": "6.0392", "elev": "80", "bundesland": "NW"}, "10501": {"icao": "----", "report_available": 0, "name": "Aachen", "lat": "50.47", "lon": "6.06", "elev": "202", "bundesland": ""}, "10502": {"icao": "ETNN", "report_available": 1, "name": "Nörvenich (Flugplatz)", "lat": "50.8294", "lon": "6.6601", "elev": "110", "bundesland": "NW"}, "10505": {"icao": "----", "report_available": 1, "name": "Aachen-Orsbach", "lat": "50.798", "lon": "6.024", "elev": "231", "bundesland": "NW"}, "10506": {"icao": "----", "report_available": 1, "name": "Nürburg-Barweiler", "lat": "50.3602", "lon": "6.8697", "elev": "485", "bundesland": "RP"}, "10510": {"icao": "----", "report_available": 0, "name": "Nuerburg", "lat": "50.20", "lon": "6.57", "elev": "627", "bundesland": ""},