{"01001": {"name": "JAN MAYEN", "icao": "ENJA", "lat": "70.56", "lon": "-8.40", "elev": "10", "bundesland": "", "report_available": 0}, "01008": {"name": "SVALBARD", "icao": "ENSB", "lat": "78.15", "lon": "15.28", "elev": "29", "bundesland": "Spitzbergen", "report_available": 1}, "01025": {"name": "TROMSOE", "icao": "----", "lat": "69.41", "lon": "18.55", "elev": "10", "bundesland": "Troms og Finnmark", "report_available": 1}, "01028": {"name": "BJORNOYA", "icao": "ENBJ", "lat": "74.31", "lon": "19.01", "elev": "16", "bundesland": "Spitzbergen", "report_available": 1}, "01049": {"name": "ALTA LUFTHAVN", "icao": "ENAT", "lat": "69.59", "lon": "23.22", "elev": "3", "bundesland": "Troms og Finnmark", "report_available": 1}, "01052": {"name": "HAMMERFEST", "icao": "ENHF", "lat": "70.40", "lon": "23.40", "elev": "81", "bundesland": "Troms og Finnmark", "report_available": 1}, "01059": {"name": "BANAK/LAKSELV (AFB)", "icao": "ENNA", "lat": "70.04", "lon": "24.59", "elev": "8", "bundesland": "Troms og Finnmark", "report_available": 0}, "01089": {"name": "KIRKENES", "icao": "ENKR", "lat": "69.44", "lon": "29.54", "elev": "91", "bundesland": "Troms og Finnmark", "report_available": 1}, "01092": {"name": "Dörpen (Kläranlage)", "icao": "----", "lat": "52.973", "lon": "7.321", "elev": "5", "bundesland": "NI", "report_available": 0}, "01112": {"name": "BRONNOYSUND/BRONNOY", "icao": "ENBN", "lat": "65.27", "lon": "12.13", "elev": "8", "bundesland": "Nordland", "report_available": 0}, "01149": {"name": "Wuppertal", "icao": "----", "lat": "51.253", "lon": "7.216", "elev": "327", "bundesland": "NW", "report_available": 0}, "01152": {"name": "Gevelsberg-Oberbröking", "icao": "ENBO", "lat": "51.333", "lon": "7.341", "elev": "203", "bundesland": "NW", "report_available": 1}, "01180": {"name": "Borken in Westfalen", "icao": "----", "lat": "51.873", "lon": "6.886", "elev": "47", "bundesland": "NW", "report_available": 1}, "01194": {"name": "Mönchengladbach-Hilderath", "icao": "----", "lat": "51.131", "lon": "6.361", "elev": "76", "bundesland": "NW", "report_available": 0}, "01210": {"name": "ALESUND AIRP", "icao": "ENAL", "lat": "62.34", "lon": "6.07", "elev": "22", "bundesland": "Møre og Romsdal", "report_available": 1}, "01215": {"name": "HJELVIG (MYRBO)", "icao": "----", "lat": "62.37", "lon": "7.14", "elev": "35", "bundesland": "Møre og Romsdal", "report_available": 0}, "01223": {"name": "KRISTIANSUND", "icao": "ENKB", "lat": "63.07", "lon": "7.50", "elev": "44", "bundesland": "Møre og Romsdal", "report_available": 1}, "01238": {"name": "FOKSTUA 2", "icao": "----", "lat": "62.07", "lon": "9.17", "elev": "973", "bundesland": "Innlandet", "report_available": 1}, "01241": {"name": "ORLAND", "icao": "ENOL", "lat": "63.42", "lon": "9.36", "elev": "7", "bundesland": "Trøndelag", "report_available": 1}, "01271": {"name": "TRONDHEIM", "icao": "ENVA", "lat": "63.28", "lon": "10.55", "elev": "17", "bundesland": "Trøndelag", "report_available": 1}, "01290": {"name": "NAMSOS", "icao": "ENNM", "lat": "64.28", "lon": "11.35", "elev": "2", "bundesland": "Trøndelag", "report_available": 0}, "01311": {"name": "BERGEN", "icao": "ENBR", "lat": "60.18", "lon": "5.13", "elev": "50", "bundesland": "Vestland", "report_available": 1}, "01338": {"name": "VANGSNES", "icao": "----", "lat": "61.10", "lon": "6.39", "elev": "51", "bundesland": "Vestland", "report_available": 1}, "01347": {"name": "SOGNDAL", "icao": "ENSG", "lat": "61.09", "lon": "7.08", "elev": "497", "bundesland": "Vestland", "report_available": 0}, "01366": {"name": "SOGNEFJELL", "icao": "----", "lat": "61.34", "lon": "8.00", "elev": "1415", "bundesland": "Innlandet", "report_available": 0}, "01368": {"name": "FAGERNES", "icao": "ENFG", "lat": "61.00", "lon": "9.18", "elev": "822", "bundesland": "Innlandet", "report_available": 1}, "01380": {"name": "VENABU", "icao": "----", "lat": "61.39", "lon": "10.07", "elev": "940", "bundesland": "Innlandet", "report_available": 0}, "01384": {"name": "OSLO/GARDERMOEN", "icao": "ENGM", "lat": "60.12", "lon": "11.06", "elev": "201", "bundesland": "Viken", "report_available": 1}, "01385": {"name": "HAMAR-STAVSBERG", "icao": "----", "lat": "60.49", "lon": "11.04", "elev": "221", "bundesland": "Innlandet", "report_available": 1}, "01403": {"name": "Westerland (Wind)", "icao": "----", "lat": "54.91", "lon": "8.327", "elev": "16", "bundesland": "SH", "report_available": 1}, "01415": {"name": "Glücksburg-Meierwik", "icao": "ENZV", "lat": "54.8273", "lon": "9.5058", "elev": "12", "bundesland": "SH", "report_available": 1}, "01452": {"name": "Freiburg/Elbe", "icao": "ENCN", "lat": "53.828", "lon": "9.249", "elev": "2", "bundesland": "NI", "report_available": 1}, "01475": {"name": "Mittelnkirchen-Hohenfelde", "icao": "ENSN", "lat": "53.553", "lon": "9.61", "elev": "2", "bundesland": "NI", "report_available": 0}, "01481": {"name": "Elsfleth", "icao": "----", "lat": "53.235", "lon": "8.461", "elev": "1", "bundesland": "NI", "report_available": 0}, "01488": {"name": "Worpswede-Hüttenbusch", "icao": "ENFB", "lat": "53.276", "lon": "8.986", "elev": "7", "bundesland": "NI", "report_available": 0}, "01492": {"name": "OSLO-BLINDERN", "icao": "----", "lat": "59.56", "lon": "10.43", "elev": "94", "bundesland": "Oslo", "report_available": 1}, "01493": {"name": "SARPSBORG", "icao": "----", "lat": "59.17", "lon": "11.07", "elev": "54", "bundesland": "Viken", "report_available": 0}, "01494": {"name": "Brake-Süderfeld", "icao": "ENRY", "lat": "53.296", "lon": "8.453", "elev": "0", "bundesland": "NI", "report_available": 0}, "02049": {"name": "GALLIVARE APT", "icao": "ESNG", "lat": "67.09", "lon": "20.39", "elev": "359", "bundesland": "Norrbottens län", "report_available": 0}, "02086": {"name": "LAINIO", "icao": "----", "lat": "67.46", "lon": "22.21", "elev": "315", "bundesland": "Norrbottens län", "report_available": 0}, "02096": {"name": "PAJALA", "icao": "----", "lat": "67.12", "lon": "23.23", "elev": "165", "bundesland": "Norrbottens län", "report_available": 0}, "02120": {"name": "Schaumberg-Tholey", "icao": "----", "lat": "49.486", "lon": "7.029", "elev": "569", "bundesland": "SL", "report_available": 0}, "02128": {"name": "GUNNARN", "icao": "ESPD", "lat": "64.58", "lon": "17.42", "elev": "278", "bundesland": "Västerbottens län", "report_available": 0}, "02186": {"name": "LULEA", "icao": "ESPA", "lat": "65.33", "lon": "22.08", "elev": "17", "bundesland": "Norrbottens län", "report_available": 1}, "02196": {"name": "HAPARANDA", "icao": "----", "lat": "65.50", "lon": "24.09", "elev": "5", "bundesland": "Lappland", "report_available": 0}, "02226": {"name": "Weilerswist-Lommersum", "icao": "ESPC", "lat": "50.712", "lon": "6.791", "elev": "147", "bundesland": "NW", "report_available": 1}, "02267": {"name": "Koblenz-Horchheim", "icao": "----", "lat": "50.337", "lon": "7.599", "elev": "85", "bundesland": "RP", "report_available": 0}, "02284": {"name": "JAERNAESKLUBB", "icao": "----", "lat": "63.26", "lon": "19.41", "elev": "6", "bundesland": "Västerbottens län", "report_available": 0}, "02286": {"name": "Wolfstein/Pfalz", "icao": "ESNU", "lat": "49.581", "lon": "7.623", "elev": "200", "bundesland": "RP", "report_available": 0}, "02293": {"name": "SKELLEFTEHAMN", "icao": "ESNS", "lat": "64.38", "lon": "21.05", "elev": "46", "bundesland": "Västerbottens län", "report_available": 0}, "02324": {"name": "SVEG", "icao": "ESND", "lat": "62.02", "lon": "14.22", "elev": "360", "bundesland": "Jämtlands län", "report_available": 0}, "02355": {"name": "Ihringen", "icao": "----", "lat": "48.042", "lon": "7.632", "elev": "193", "bundesland": "BW", "report_available": 1}, "02366": {"name": "TIMRA/MIDLANDA", "icao": "ESNN", "lat": "62.31", "lon": "17.27", "elev": "3", "bundesland": "Västernorrlands län", "report_available": 1}, "02378": {"name": "SODERHAMN", "icao": "ESNY", "lat": "61.16", "lon": "17.06", "elev": "26", "bundesland": "Gävleborgs län", "report_available": 0}, "02404": {"name": "ARVIKA", "icao": "ESKV", "lat": "59.40", "lon": "12.35", "elev": "77", "bundesland": "Värmlands län", "report_available": 0}, "02418": {"name": "KARLSTAD", "icao": "ESSQ", "lat": "59.22", "lon": "13.28", "elev": "46", "bundesland": "Värmlands län", "report_available": 1}, "02435": {"name": "BORLANGE", "icao": "----", "lat": "60.26", "lon": "15.30", "elev": "145", "bundesland": "Dalarnas län", "report_available": 0}, "02458": {"name": "UPPSALA", "icao": "ESCM", "lat": "59.53", "lon": "17.36", "elev": "21", "bundesland": "Uppsala län", "report_available": 0}, "02460": {"name": "STOCKHOLM/ARLANDA", "icao": "ESSA", "lat": "59.39", "lon": "17.55", "elev": "37", "bundesland": "Stockholms län", "report_available": 0}, "02464": {"name": "STOCKHOLM", "icao": "ESKN", "lat": "59.21", "lon": "17.57", "elev": "15", "bundesland": "Stockholms län", "report_available": 1}, "02469": {"name": "TULLINGE", "icao": "----", "lat": "59.11", "lon": "17.55", "elev": "45", "bundesland": "Stockholms län", "report_available": 1}, "02476": {"name": "FLODA", "icao": "----", "lat": "59.04", "lon": "16.23", "elev": "32", "bundesland": "Södermanlands län", "report_available": 0}, "02481": {"name": "SALA", "icao": "----", "lat": "59.55", "lon": "16.41", "elev": "57", "bundesland": "Västmanlands län", "report_available": 0}, "02490": {"name": "SVANBERGA", "icao": "----", "lat": "59.50", "lon": "18.38", "elev": "15", "bundesland": "Stockholms län", "report_available": 0}, "02493": {"name": "SOEDERARM", "icao": "----", "lat": "59.45", "lon": "19.25", "elev": "15", "bundesland": "Stockholms län", "report_available": 0}, "02500": {"name": "NORDKOSTER", "icao": "----", "lat": "58.53", "lon": "11.00", "elev": "33", "bundesland": "Västra Götalands län", "report_available": 1}, "02505": {"name": "Lindenfels-Winterkasten", "icao": "----", "lat": "49.712", "lon": "8.78", "elev": "445", "bundesland": "HE", "report_available": 0}, "02512": {"name": "Rappenau, Bad", "icao": "ESGP", "lat": "49.25", "lon": "9.083", "elev": "250", "bundesland": "BW", "report_available": 0}, "02513": {"name": "Walldürn", "icao": "----", "lat": "49.579", "lon": "9.398", "elev": "404", "bundesland": "BW", "report_available": 1}, "02520": {"name": "Dürkheim, Bad (Saline)", "icao": "ESIB", "lat": "49.469", "lon": "8.18", "elev": "115", "bundesland": "RP", "report_available": 1}, "02527": {"name": "GOTEBORG/LANDVETTER", "icao": "ESGG", "lat": "57.40", "lon": "12.30", "elev": "164", "bundesland": "Västra Götalands län", "report_available": 0}, "02542": {"name": "HALLUM", "icao": "----", "lat": "58.19", "lon": "13.02", "elev": "70", "bundesland": "Västra Götalands län", "report_available": 0}, "02550": {"name": "JONKOPING", "icao": "ESGJ", "lat": "57.46", "lon": "14.05", "elev": "226", "bundesland": "Jönköpings län", "report_available": 1}, "02559": {"name": "Frankfurt/Main (Terminal)", "icao": "----", "lat": "50.05", "lon": "8.589", "elev": "111", "bundesland": "HE", "report_available": 0}, "02562": {"name": "LINKOPING", "icao": "ESCF", "lat": "58.24", "lon": "15.31", "elev": "93", "bundesland": "Östergötlands län", "report_available": 1}, "02566": {"name": "Butzbach-Bodenrod", "icao": "----", "lat": "50.396", "lon": "8.547", "elev": "479", "bundesland": "HE", "report_available": 0}, "02574": {"name": "NORRKOPING", "icao": "----", "lat": "58.35", "lon": "16.09", "elev": "35", "bundesland": "Östergötlands län", "report_available": 0}, "02584": {"name": "Runkel-Ennerich", "icao": "----", "lat": "50.394", "lon": "8.142", "elev": "168", "bundesland": "HE", "report_available": 0}, "02586": {"name": "Holzhausen a.d. Haide", "icao": "----", "lat": "50.218", "lon": "7.913", "elev": "397", "bundesland": "RP", "report_available": 0}, "02590": {"name": "Wiesbaden-Auringen", "icao": "ESSV", "lat": "50.132", "lon": "8.317", "elev": "263", "bundesland": "HE", "report_available": 1}, "02595": {"name": "ROMA/GOTLAND", "icao": "----", "lat": "57.33", "lon": "18.26", "elev": "35", "bundesland": "Gotlands län", "report_available": 0}, "02603": {"name": "Aßlar Klein-Altenstädten", "icao": "----", "lat": "50.58", "lon": "8.469", "elev": "200", "bundesland": "HE", "report_available": 0}, "02604": {"name": "Fuchskauten", "icao": "ESMT", "lat": "50.659", "lon": "8.103", "elev": "653", "bundesland": "RP", "report_available": 0}, "02607": {"name": "Marburg-Cappel", "icao": "ESDB", "lat": "50.776", "lon": "8.761", "elev": "178", "bundesland": "HE", "report_available": 0}, "02611": {"name": "Cölbe, Kr. Marburg-Biedenkopf", "icao": "ESHH", "lat": "50.849", "lon": "8.775", "elev": "187", "bundesland": "HE", "report_available": 0}, "02616": {"name": "Schwarzenborn", "icao": "----", "lat": "50.9", "lon": "9.467", "elev": "548", "bundesland": "HE", "report_available": 0}, "02620": {"name": "TORUP", "icao": "----", "lat": "56.58", "lon": "13.04", "elev": "85", "bundesland": "Hallands län", "report_available": 0}, "02623": {"name": "HORBY", "icao": "----", "lat": "55.52", "lon": "13.40", "elev": "114", "bundesland": "Skåne län", "report_available": 0}, "02625": {"name": "Wasserkuppe", "icao": "----", "lat": "50.4973", "lon": "9.9427", "elev": "920", "bundesland": "HE", "report_available": 0}, "02628": {"name": "Geroda-Platz", "icao": "----", "lat": "50.278", "lon": "9.914", "elev": "553", "bundesland": "BY", "report_available": 0}, "02635": {"name": "Worms", "icao": "----", "lat": "49.605", "lon": "8.366", "elev": "88", "bundesland": "RP", "report_available": 1}, "02636": {"name": "Büdingen", "icao": "ESMS", "lat": "50.277", "lon": "9.117", "elev": "148", "bundesland": "HE", "report_available": 0}, "02641": {"name": "Frankfurt/Main (Feldbergstr.)", "icao": "ESMX", "lat": "50.121", "lon": "8.66", "elev": "103", "bundesland": "HE", "report_available": 0}, "02648": {"name": "Kleiner Feldberg/Taunus", "icao": "----", "lat": "50.2218", "lon": "8.4469", "elev": "822", "bundesland": "HE", "report_available": 0}, "02651": {"name": "KRISTIANSTAD", "icao": "ESMK", "lat": "55.55", "lon": "14.05", "elev": "23", "bundesland": "Skåne län", "report_available": 0}, "02664": {"name": "Bensheim", "icao": "ESDF", "lat": "49.679", "lon": "8.628", "elev": "140", "bundesland": "HE", "report_available": 1}, "02670": {"name": "KALMAR", "icao": "ESMQ", "lat": "56.41", "lon": "16.18", "elev": "6", "bundesland": "Kalmar län", "report_available": 0}, "02680": {"name": "HOBURG", "icao": "----", "lat": "56.55", "lon": "18.09", "elev": "40", "bundesland": "Gotlands län", "report_available": 0}, "02752": {"name": "Baiersbronn-Obertal", "icao": "----", "lat": "48.529", "lon": "8.273", "elev": "622", "bundesland": "BW", "report_available": 0}, "02807": {"name": "IVALO", "icao": "EFIV", "lat": "68.37", "lon": "27.25", "elev": "147", "bundesland": "Lappland", "report_available": 1}, "02810": {"name": "Lautertal-Hörgenau", "icao": "EFET", "lat": "50.581", "lon": "9.286", "elev": "522", "bundesland": "HE", "report_available": 0}, "02830": {"name": "Külsheim", "icao": "EFKT", "lat": "49.667", "lon": "9.522", "elev": "323", "bundesland": "BW", "report_available": 0}, "02836": {"name": "Gerabronn", "icao": "EFSO", "lat": "49.251", "lon": "9.934", "elev": "474", "bundesland": "BW", "report_available": 1}, "02847": {"name": "ROVANIEMI", "icao": "----", "lat": "66.30", "lon": "25.43", "elev": "85", "bundesland": "Lappland", "report_available": 0}, "02869": {"name": "KUUSAMO", "icao": "EFKS", "lat": "65.58", "lon": "29.11", "elev": "262", "bundesland": "Nordösterbotten", "report_available": 0}, "02876": {"name": "OULU", "icao": "----", "lat": "65.01", "lon": "25.23", "elev": "3", "bundesland": "Nordösterbotten", "report_available": 0}, "02897": {"name": "KAJAANI", "icao": "EFKI", "lat": "64.17", "lon": "27.41", "elev": "143", "bundesland": "Kainuu", "report_available": 1}, "02911": {"name": "Kaisersbach-Cronhütte", "icao": "EFVA", "lat": "48.917", "lon": "9.6871", "elev": "489", "bundesland": "BW", "report_available": 0}, "02912": {"name": "VAASA", "icao": "----", "lat": "63.06", "lon": "21.35", "elev": "4", "bundesland": "Österbotten", "report_available": 0}, "02915": {"name": "Schönwald/Schwarzwald", "icao": "----", "lat": "48.1", "lon": "8.197", "elev": "1021", "bundesland": "BW", "report_available": 1}, "02917": {"name": "Weissach", "icao": "EFKU", "lat": "48.846", "lon": "8.907", "elev": "455", "bundesland": "BW", "report_available": 1}, "02929": {"name": "Neuhausen ob Eck-Unterschwandorf", "icao": "EFJO", "lat": "47.952", "lon": "8.993", "elev": "663", "bundesland": "BW", "report_available": 0}, "02935": {"name": "Wellendingen", "icao": "EFJY", "lat": "48.148", "lon": "8.695", "elev": "655", "bundesland": "BW", "report_available": 0}, "02944": {"name": "Kandern-Gupf", "icao": "EFTP", "lat": "47.7", "lon": "7.59", "elev": "362", "bundesland": "BW", "report_available": 1}, "02947": {"name": "Wolfegg", "icao": "----", "lat": "47.818", "lon": "9.797", "elev": "677", "bundesland": "BW", "report_available": 0}, "02948": {"name": "SAVONLINNA", "icao": "EFSA", "lat": "61.57", "lon": "28.57", "elev": "95", "bundesland": "Südsavo", "report_available": 0}, "02952": {"name": "Lenzkirch-Saig", "icao": "EFPO", "lat": "47.892", "lon": "8.179", "elev": "990", "bundesland": "BW", "report_available": 0}, "02958": {"name": "LAPPEENRANTA", "icao": "----", "lat": "61.03", "lon": "28.12", "elev": "101", "bundesland": "Südkarelien", "report_available": 0}, "02965": {"name": "LAHTI", "icao": "----", "lat": "60.58", "lon": "25.38", "elev": "83", "bundesland": "Päijät-Häme", "report_available": 1}, "02966": {"name": "Baindt", "icao": "EFUT", "lat": "47.841", "lon": "9.661", "elev": "467", "bundesland": "BW", "report_available": 0}, "02970": {"name": "MARIEHAMN", "icao": "EFMA", "lat": "60.07", "lon": "19.54", "elev": "5", "bundesland": "Åländer Land", "report_available": 0}, "02972": {"name": "Tübingen (Botanischer Garten)", "icao": "EFTU", "lat": "48.54", "lon": "9.036", "elev": "445", "bundesland": "BW", "report_available": 0}, "02974": {"name": "HELSINKI/VANTAA", "icao": "EFHK", "lat": "60.19", "lon": "24.58", "elev": "51", "bundesland": "Uusimaa", "report_available": 1}, "02975": {"name": "HELSINKI", "icao": "EFHF", "lat": "60.15", "lon": "25.03", "elev": "17", "bundesland": "Uusimaa", "report_available": 0}, "02982": {"name": "HANKO", "icao": "----", "lat": "59.46", "lon": "22.57", "elev": "5", "bundesland": "Uusimaa", "report_available": 1}, "03005": {"name": "Arkona", "icao": "----", "lat": "54.6791", "lon": "13.4344", "elev": "42", "bundesland": "MV", "report_available": 1}, "03017": {"name": "KIRKWALL", "icao": "EGPA", "lat": "58.57", "lon": "-2.54", "elev": "26", "bundesland": "", "report_available": 1}, "03026": {"name": "Boltenhagen", "icao": "EGPO", "lat": "54.0027", "lon": "11.1908", "elev": "15", "bundesland": "MV", "report_available": 1}, "03041": {"name": "AONACH MOR", "icao": "----", "lat": "56.49", "lon": "-4.58", "elev": "1130", "bundesland": "Schottland", "report_available": 0}, "03044": {"name": "Waren (Müritz)", "icao": "----", "lat": "53.5196", "lon": "12.6654", "elev": "73", "bundesland": "MV", "report_available": 1}, "03059": {"name": "INVERNESS", "icao": "EGPE", "lat": "57.32", "lon": "-4.03", "elev": "9", "bundesland": "Schottland", "report_available": 0}, "03063": {"name": "AVIEMORE", "icao": "----", "lat": "57.13", "lon": "-3.50", "elev": "228", "bundesland": "Schottland", "report_available": 0}, "03065": {"name": "Steinhagen-Negast", "icao": "----", "lat": "54.248", "lon": "13.042", "elev": "17", "bundesland": "MV", "report_available": 0}, "03066": {"name": "KINLOSS", "icao": "EGQK", "lat": "57.39", "lon": "-3.34", "elev": "6", "bundesland": "Schottland", "report_available": 1}, "03068": {"name": "Stralsund-Devin", "icao": "EGQS", "lat": "54.267", "lon": "13.143", "elev": "2", "bundesland": "MV", "report_available": 1}, "03075": {"name": "WICK", "icao": "EGPC", "lat": "58.27", "lon": "-3.05", "elev": "39", "bundesland": "", "report_available": 1}, "03091": {"name": "ABERDEEN", "icao": "EGPD", "lat": "57.12", "lon": "-2.13", "elev": "65", "bundesland": "", "report_available": 1}, "03094": {"name": "ROSEHEARTY", "icao": "----", "lat": "57.42", "lon": "-2.07", "elev": "4", "bundesland": "", "report_available": 0}, "03100": {"name": "TIREE", "icao": "EGPU", "lat": "56.30", "lon": "-6.53", "elev": "12", "bundesland": "", "report_available": 1}, "03114": {"name": "OBAN", "icao": "----", "lat": "56.25", "lon": "-5.28", "elev": "4", "bundesland": "Schottland", "report_available": 0}, "03132": {"name": "WEST FREUGH", "icao": "----", "lat": "54.52", "lon": "-4.56", "elev": "11", "bundesland": "England", "report_available": 1}, "03135": {"name": "PRESTWICK", "icao": "EGPK", "lat": "55.30", "lon": "-4.36", "elev": "20", "bundesland": "Schottland", "report_available": 0}, "03136": {"name": "PRESTWICK/RNAS", "icao": "----", "lat": "55.31", "lon": "-4.35", "elev": "26", "bundesland": "Schottland", "report_available": 1}, "03140": {"name": "GLASGOW", "icao": "EGPF", "lat": "55.52", "lon": "-4.26", "elev": "8", "bundesland": "Schottland", "report_available": 0}, "03154": {"name": "DUMFRIES", "icao": "----", "lat": "55.03", "lon": "-3.39", "elev": "16", "bundesland": "England", "report_available": 0}, "03158": {"name": "CHARTERHALL", "icao": "----", "lat": "55.43", "lon": "-2.23", "elev": "112", "bundesland": "", "report_available": 1}, "03160": {"name": "EDINBURGH", "icao": "EGPH", "lat": "55.57", "lon": "-3.21", "elev": "41", "bundesland": "Schottland", "report_available": 0}, "03162": {"name": "Seehausen", "icao": "----", "lat": "52.8911", "lon": "11.7297", "elev": "21", "bundesland": "ST", "report_available": 1}, "03171": {"name": "Tangermünde", "icao": "EGQL", "lat": "52.545", "lon": "11.972", "elev": "45", "bundesland": "ST", "report_available": 1}, "03204": {"name": "Wismar", "icao": "EGNS", "lat": "53.903", "lon": "11.425", "elev": "17", "bundesland": "MV", "report_available": 1}, "03220": {"name": "Leipzig-Mockau", "icao": "----", "lat": "51.392", "lon": "12.3962", "elev": "128", "bundesland": "SN", "report_available": 1}, "03235": {"name": "Diesbar-Seußlitz", "icao": "----", "lat": "51.24", "lon": "13.417", "elev": "100", "bundesland": "SN", "report_available": 0}, "03245": {"name": "Bertsdorf-Hörnitz", "icao": "EGNT", "lat": "50.899", "lon": "14.746", "elev": "271", "bundesland": "SN", "report_available": 0}, "03246": {"name": "Berlin-Ostkreuz", "icao": "----", "lat": "52.5", "lon": "13.467", "elev": "36", "bundesland": "BE", "report_available": 0}, "03257": {"name": "Hasselfelde", "icao": "EGXE", "lat": "51.687", "lon": "10.863", "elev": "461", "bundesland": "ST", "report_available": 1}, "03261": {"name": "Blankenburg, Bad", "icao": "----", "lat": "50.674", "lon": "11.281", "elev": "254", "bundesland": "TH", "report_available": 1}, "03262": {"name": "Sonneberg-Stadtberg", "icao": "----", "lat": "50.383", "lon": "11.183", "elev": "626", "bundesland": "TH", "report_available": 0}, "03265": {"name": "Feldberg", "icao": "EGXZ", "lat": "53.335", "lon": "13.437", "elev": "92", "bundesland": "MV", "report_available": 0}, "03266": {"name": "Wustrau-Ziethenhorst", "icao": "EGXU", "lat": "52.804", "lon": "12.871", "elev": "35", "bundesland": "BB", "report_available": 0}, "03275": {"name": "Kamenz", "icao": "----", "lat": "51.267", "lon": "14.083", "elev": "270", "bundesland": "SN", "report_available": 0}, "03292": {"name": "BRIDLINGTON", "icao": "----", "lat": "54.05", "lon": "-0.11", "elev": "15", "bundesland": "", "report_available": 1}, "03302": {"name": "Berlin-Kaniswall", "icao": "EGOV", "lat": "52.404", "lon": "13.731", "elev": "33", "bundesland": "BE", "report_available": 1}, "03313": {"name": "Berlin-Tegel", "icao": "----", "lat": "52.5644", "lon": "13.3088", "elev": "36", "bundesland": "BE", "report_available": 0}, "03318": {"name": "Berlin-Lichterfelde (Süd)", "icao": "EGNH", "lat": "52.414", "lon": "13.304", "elev": "43", "bundesland": "BE", "report_available": 0}, "03321": {"name": "Berlin-Tegeler Fliesstal", "icao": "EGNR", "lat": "52.604", "lon": "13.295", "elev": "36", "bundesland": "BE", "report_available": 1}, "03334": {"name": "Manschnow", "icao": "EGCC", "lat": "52.5468", "lon": "14.5453", "elev": "12", "bundesland": "BB", "report_available": 0}, "03347": {"name": "Wellmitz", "icao": "EGRY", "lat": "52.065", "lon": "14.69", "elev": "58", "bundesland": "BB", "report_available": 0}, "03354": {"name": "Jessen/Elster", "icao": "EGRW", "lat": "51.795", "lon": "12.958", "elev": "77", "bundesland": "ST", "report_available": 1}, "03377": {"name": "Oschatz", "icao": "----", "lat": "51.296", "lon": "13.0928", "elev": "150", "bundesland": "SN", "report_available": 1}, "03379": {"name": "Nossen", "icao": "EGYD", "lat": "51.051", "lon": "13.3", "elev": "306", "bundesland": "SN", "report_available": 1}, "03385": {"name": "Taubenheim-Seeligstadt", "icao": "----", "lat": "51.084", "lon": "13.449", "elev": "273", "bundesland": "SN", "report_available": 0}, "03405": {"name": "Mühlhausen", "icao": "----", "lat": "51.208", "lon": "10.396", "elev": "300", "bundesland": "TH", "report_available": 1}, "03414": {"name": "Rastenberg", "icao": "EGOS", "lat": "51.177", "lon": "11.418", "elev": "200", "bundesland": "TH", "report_available": 1}, "03453": {"name": "COTTESMORE", "icao": "EGXJ", "lat": "52.44", "lon": "-0.39", "elev": "138", "bundesland": "England", "report_available": 0}, "03462": {"name": "WITTERING", "icao": "EGXT", "lat": "52.37", "lon": "-0.28", "elev": "84", "bundesland": "England", "report_available": 1}, "03482": {"name": "MARHAM", "icao": "EGYM", "lat": "52.39", "lon": "0.34", "elev": "23", "bundesland": "England", "report_available": 1}, "03492": {"name": "NORWICH-W.C.", "icao": "EGSH", "lat": "52.38", "lon": "1.18", "elev": "14", "bundesland": "England", "report_available": 0}, "03495": {"name": "COLTISHALL", "icao": "EGYC", "lat": "52.46", "lon": "1.21", "elev": "20", "bundesland": "England", "report_available": 0}, "03496": {"name": "HEMSBY", "icao": "----", "lat": "52.41", "lon": "1.41", "elev": "13", "bundesland": "England", "report_available": 0}, "03499": {"name": "SM.KNOLL", "icao": "----", "lat": "52.43", "lon": "2.18", "elev": "5", "bundesland": "", "report_available": 0}, "03502": {"name": "ABERPORTH", "icao": "EGUC", "lat": "52.08", "lon": "-4.34", "elev": "133", "bundesland": "Wales", "report_available": 1}, "03503": {"name": "TRAWSCOED", "icao": "----", "lat": "52.20", "lon": "-3.57", "elev": "63", "bundesland": "England", "report_available": 0}, "03520": {"name": "SHOBDON", "icao": "EGBS", "lat": "52.15", "lon": "-2.53", "elev": "99", "bundesland": "England", "report_available": 1}, "03534": {"name": "BIRMINGHAM/AIRPORT", "icao": "EGBB", "lat": "52.27", "lon": "-1.45", "elev": "93", "bundesland": "England", "report_available": 0}, "03560": {"name": "BEDFORD", "icao": "EGVW", "lat": "52.13", "lon": "-0.29", "elev": "85", "bundesland": "England", "report_available": 1}, "03590": {"name": "WATTISHAM", "icao": "EGUW", "lat": "52.07", "lon": "0.58", "elev": "87", "bundesland": "England", "report_available": 1}, "03604": {"name": "MILFORD HAVEN", "icao": "----", "lat": "51.43", "lon": "-5.03", "elev": "44", "bundesland": "Wales", "report_available": 1}, "03628": {"name": "Leutenberg-Steinsdorf", "icao": "EGTG", "lat": "50.585", "lon": "11.493", "elev": "557", "bundesland": "TH", "report_available": 1}, "03647": {"name": "LITTLE RISSINGTON", "icao": "----", "lat": "51.52", "lon": "-1.41", "elev": "215", "bundesland": "England", "report_available": 0}, "03649": {"name": "BRIZE NORTON", "icao": "EGVN", "lat": "51.45", "lon": "-1.35", "elev": "88", "bundesland": "England", "report_available": 0}, "03672": {"name": "NORTHOLT", "icao": "EGWU", "lat": "51.33", "lon": "-0.25", "elev": "38", "bundesland": "England", "report_available": 0}, "03683": {"name": "STANSTED", "icao": "EGSS", "lat": "51.53", "lon": "0.14", "elev": "106", "bundesland": "England", "report_available": 0}, "03707": {"name": "CHIVENOR", "icao": "EGDC", "lat": "51.05", "lon": "-4.09", "elev": "6", "bundesland": "England", "report_available": 0}, "03715": {"name": "CARDIFF-WALES", "icao": "EGFF", "lat": "51.24", "lon": "-3.21", "elev": "67", "bundesland": "England", "report_available": 0}, "03716": {"name": "ST. ATHAN /WALES", "icao": "EGSY", "lat": "51.24", "lon": "-3.26", "elev": "50", "bundesland": "England", "report_available": 0}, "03726": {"name": "BRISTOL/MET.", "icao": "EGRD", "lat": "51.28", "lon": "-2.36", "elev": "11", "bundesland": "England", "report_available": 0}, "03740": {"name": "LYNEHAM", "icao": "EGDL", "lat": "51.30", "lon": "-1.59", "elev": "145", "bundesland": "England", "report_available": 1}, "03743": {"name": "LARKHILL", "icao": "----", "lat": "51.12", "lon": "-1.49", "elev": "132", "bundesland": "England", "report_available": 1}, "03768": {"name": "FARNBOROUGH", "icao": "----", "lat": "51.17", "lon": "0.46", "elev": "65", "bundesland": "England", "report_available": 0}, "03772": {"name": "LONDON", "icao": "EGLL", "lat": "51.29", "lon": "-0.27", "elev": "24", "bundesland": "", "report_available": 1}, "03776": {"name": "LONDON/GATWICK", "icao": "EGKK", "lat": "51.09", "lon": "-0.11", "elev": "62", "bundesland": "England", "report_available": 0}, "03779": {"name": "LONDON WEATHER CENT.", "icao": "EGRB", "lat": "51.31", "lon": "-0.06", "elev": "43", "bundesland": "England", "report_available": 0}, "03781": {"name": "KENLEY", "icao": "----", "lat": "51.18", "lon": "-0.05", "elev": "170", "bundesland": "England", "report_available": 1}, "03797": {"name": "MANSTON", "icao": "EGMH", "lat": "51.21", "lon": "1.21", "elev": "44", "bundesland": "England", "report_available": 1}, "03803": {"name": "SCILLY", "icao": "----", "lat": "49.55", "lon": "-6.18", "elev": "31", "bundesland": "", "report_available": 0}, "03808": {"name": "CAMBORNE", "icao": "----", "lat": "50.13", "lon": "-5.20", "elev": "87", "bundesland": "", "report_available": 1}, "03809": {"name": "Kiel-Holtenau", "icao": "EGDR", "lat": "54.3776", "lon": "10.1424", "elev": "28", "bundesland": "SH", "report_available": 0}, "03817": {"name": "Kalifornien", "icao": "EGDG", "lat": "54.433", "lon": "10.367", "elev": "2", "bundesland": "SH", "report_available": 0}, "03827": {"name": "Timmendorfer Strand", "icao": "EGDB", "lat": "54", "lon": "10.767", "elev": "28", "bundesland": "SH", "report_available": 1}, "03839": {"name": "EXETER APT", "icao": "EGTE", "lat": "50.44", "lon": "-3.25", "elev": "30", "bundesland": "England", "report_available": 1}, "03853": {"name": "YEOVILTON", "icao": "----", "lat": "51.01", "lon": "-2.38", "elev": "23", "bundesland": "England", "report_available": 1}, "03862": {"name": "BOURNEMOUTH/HURN", "icao": "EGHH", "lat": "50.47", "lon": "-1.50", "elev": "11", "bundesland": "", "report_available": 0}, "03865": {"name": "Hamburg-Bergedorf", "icao": "EGHI", "lat": "53.479", "lon": "10.242", "elev": "35", "bundesland": "HH", "report_available": 0}, "03866": {"name": "Hamburg-Kirchwerder", "icao": "----", "lat": "53.421", "lon": "10.146", "elev": "2", "bundesland": "HH", "report_available": 0}, "03882": {"name": "Lübeck-Blankensee", "icao": "----", "lat": "53.8025", "lon": "10.6989", "elev": "15", "bundesland": "SH", "report_available": 0}, "03890": {"name": "OXFORD", "icao": "----", "lat": "51.45", "lon": "-1.16", "elev": "68", "bundesland": "England", "report_available": 0}, "03894": {"name": "Wendisch Evern", "icao": "EGJB", "lat": "53.214", "lon": "10.47", "elev": "62", "bundesland": "NI", "report_available": 1}, "03895": {"name": "JERSEY-AIRPORT", "icao": "EGJJ", "lat": "49.13", "lon": "-2.12", "elev": "84", "bundesland": "", "report_available": 1}, "03903": {"name": "ST. ANGELO", "icao": "EGAB", "lat": "54.24", "lon": "-7.39", "elev": "47", "bundesland": "Nordirland", "report_available": 0}, "03908": {"name": "BALLYKELLY", "icao": "EGQB", "lat": "55.04", "lon": "-7.01", "elev": "2", "bundesland": "Nordirland", "report_available": 0}, "03914": {"name": "PORTRUSH", "icao": "----", "lat": "55.12", "lon": "-6.39", "elev": "8", "bundesland": "", "report_available": 0}, "03917": {"name": "Braunschweig-Gliesmarode", "icao": "EGAA", "lat": "52.274", "lon": "10.566", "elev": "83", "bundesland": "NI", "report_available": 1}, "03930": {"name": "LIVERPOOL", "icao": "EGGP", "lat": "53.20", "lon": "-2.52", "elev": "26", "bundesland": "England", "report_available": 0}, "03953": {"name": "VALENTIA", "icao": "----", "lat": "51.56", "lon": "-10.14", "elev": "25", "bundesland": "County Kerry", "report_available": 1}, "03955": {"name": "CORK AIRPORT", "icao": "EICK", "lat": "51.51", "lon": "-8.29", "elev": "153", "bundesland": "", "report_available": 1}, "03957": {"name": "ROSSLARE", "icao": "----", "lat": "52.15", "lon": "-6.20", "elev": "23", "bundesland": "", "report_available": 0}, "03958": {"name": "COVENTRY", "icao": "EGBE", "lat": "52.22", "lon": "-1.29", "elev": "82", "bundesland": "England", "report_available": 0}, "03960": {"name": "KILKENNY", "icao": "EIKL", "lat": "52.40", "lon": "-7.16", "elev": "63", "bundesland": "County Carlow", "report_available": 0}, "03961": {"name": "CARLOW OAK PARK", "icao": "----", "lat": "52.51", "lon": "-6.55", "elev": "61", "bundesland": "", "report_available": 0}, "03962": {"name": "SHANNON", "icao": "EINN", "lat": "52.42", "lon": "-8.55", "elev": "14", "bundesland": "County Kilkenny", "report_available": 1}, "03969": {"name": "Grund, Bad (Erzbergwerk)", "icao": "EIDW", "lat": "51.8", "lon": "10.217", "elev": "320", "bundesland": "NI", "report_available": 1}, "03971": {"name": "Altenau", "icao": "----", "lat": "51.798", "lon": "10.443", "elev": "500", "bundesland": "NI", "report_available": 0}, "03976": {"name": "Seesen", "icao": "----", "lat": "51.904", "lon": "10.189", "elev": "189", "bundesland": "NI", "report_available": 1}, "03980": {"name": "Schulenberg", "icao": "----", "lat": "51.837", "lon": "10.431", "elev": "504", "bundesland": "NI", "report_available": 1}, "04018": {"name": "Erlangen-Frauenaurach", "icao": "BIKF", "lat": "49.565", "lon": "10.973", "elev": "284", "bundesland": "BY", "report_available": 0}, "04030": {"name": "REYKJAVIK", "icao": "BIRK", "lat": "64.08", "lon": "-21.54", "elev": "54", "bundesland": "Skeiða- og Gnúpverjahreppur", "report_available": 1}, "04048": {"name": "Fladungen-Heufurt", "icao": "BIVM", "lat": "50.505", "lon": "10.167", "elev": "366", "bundesland": "BY", "report_available": 1}, "04063": {"name": "Bamberg (Sternwarte)", "icao": "BIAR", "lat": "49.88", "lon": "10.88", "elev": "282", "bundesland": "BY", "report_available": 1}, "04072": {"name": "Uttenreuth", "icao": "----", "lat": "49.593", "lon": "11.07", "elev": "291", "bundesland": "BY", "report_available": 0}, "04094": {"name": "Ansbach-Hennenbach", "icao": "----", "lat": "49.316", "lon": "10.582", "elev": "418", "bundesland": "BY", "report_available": 0}, "04097": {"name": "Wörnitz-Bottenweiler", "icao": "----", "lat": "49.218", "lon": "10.23", "elev": "464", "bundesland": "BY", "report_available": 1}, "04231": {"name": "SONDRESTROMFJORD", "icao": "BGSF", "lat": "67.01", "lon": "-50.42", "elev": "50", "bundesland": "Qeqqata Kommunia", "report_available": 0}, "04250": {"name": "GODTHAB NUUK", "icao": "----", "lat": "64.10", "lon": "-51.45", "elev": "80", "bundesland": "Kommuneqarfik Sermersooq", "report_available": 0}, "04270": {"name": "Altmühlsee", "icao": "BGBW", "lat": "49.142", "lon": "10.73", "elev": "416", "bundesland": "BY", "report_available": 0}, "04320": {"name": "DANMARKSHAVN", "icao": "BGDH", "lat": "76.46", "lon": "-18.40", "elev": "11", "bundesland": "", "report_available": 0}, "04330": {"name": "Aubstadt", "icao": "BGDB", "lat": "50.333", "lon": "10.449", "elev": "304", "bundesland": "BY", "report_available": 0}, "04339": {"name": "SCORESBYSUND", "icao": "BGSC", "lat": "70.29", "lon": "-21.58", "elev": "65", "bundesland": "", "report_available": 0}, "04360": {"name": "Harburg", "icao": "BGAM", "lat": "48.7918", "lon": "10.7062", "elev": "501", "bundesland": "BY", "report_available": 0}, "04361": {"name": "KULUSUK", "icao": "BGKK", "lat": "65.34", "lon": "-37.08", "elev": "35", "bundesland": "", "report_available": 0}, "06011": {"name": "FAROEER", "icao": "----", "lat": "62.01", "lon": "-6.46", "elev": "54", "bundesland": "", "report_available": 0}, "06030": {"name": "ALBORG", "icao": "EKYT", "lat": "57.06", "lon": "9.52", "elev": "3", "bundesland": "Region Nordjylland", "report_available": 1}, "06041": {"name": "SKAGEN", "icao": "----", "lat": "57.46", "lon": "10.39", "elev": "3", "bundesland": "", "report_available": 0}, "06052": {"name": "THYBORON", "icao": "----", "lat": "56.43", "lon": "8.13", "elev": "2", "bundesland": "", "report_available": 0}, "06060": {"name": "KARUP", "icao": "EKKA", "lat": "56.18", "lon": "9.07", "elev": "52", "bundesland": "Region Midtjylland", "report_available": 1}, "06062": {"name": "SKIVE", "icao": "EKSV", "lat": "56.33", "lon": "9.10", "elev": "23", "bundesland": "Region Midtjylland", "report_available": 0}, "06070": {"name": "TIRSTRUP", "icao": "EKAH", "lat": "56.18", "lon": "10.37", "elev": "25", "bundesland": "Region Midtjylland", "report_available": 1}, "06078": {"name": "ANHOLT", "icao": "----", "lat": "56.42", "lon": "11.33", "elev": "7", "bundesland": "Region Midtjylland", "report_available": 0}, "06080": {"name": "ESBJERG", "icao": "EKEB", "lat": "55.31", "lon": "8.33", "elev": "29", "bundesland": "Region Syddanmark", "report_available": 0}, "06104": {"name": "BILLUND", "icao": "EKBI", "lat": "55.44", "lon": "9.09", "elev": "70", "bundesland": "Region Syddanmark", "report_available": 0}, "06110": {"name": "SKRYDSTRUP", "icao": "EKSP", "lat": "55.14", "lon": "9.16", "elev": "43", "bundesland": "Region Syddanmark", "report_available": 0}, "06119": {"name": "KEGNAES", "icao": "----", "lat": "54.51", "lon": "9.59", "elev": "17", "bundesland": "", "report_available": 0}, "06120": {"name": "ODENSE", "icao": "EKOD", "lat": "55.28", "lon": "10.20", "elev": "17", "bundesland": "Region Syddanmark", "report_available": 1}, "06141": {"name": "ABED", "icao": "----", "lat": "54.50", "lon": "11.20", "elev": "8", "bundesland": "Region Sjælland", "report_available": 0}, "06147": {"name": "VINDEBAEK KYST", "icao": "----", "lat": "54.53", "lon": "12.11", "elev": "3", "bundesland": "Region Sjælland", "report_available": 0}, "06160": {"name": "VAERLOESE", "icao": "EKVL", "lat": "55.46", "lon": "12.20", "elev": "18", "bundesland": "Region Hovedstaden", "report_available": 0}, "06169": {"name": "GNIBEN", "icao": "----", "lat": "56.01", "lon": "11.17", "elev": "14", "bundesland": "", "report_available": 0}, "06170": {"name": "KOEBENHAVN/ROSKILDE", "icao": "EKRK", "lat": "55.35", "lon": "12.08", "elev": "44", "bundesland": "Region Sjælland", "report_available": 0}, "06174": {"name": "TESSEBOELLE", "icao": "----", "lat": "55.24", "lon": "12.09", "elev": "21", "bundesland": "Region Sjælland", "report_available": 0}, "06180": {"name": "KOPENHAGEN", "icao": "EKCH", "lat": "55.38", "lon": "12.40", "elev": "5", "bundesland": "Region Hovedstaden", "report_available": 1}, "06190": {"name": "ROENNE/BORNH.", "icao": "EKRN", "lat": "55.04", "lon": "14.45", "elev": "16", "bundesland": "Region Hovedstaden", "report_available": 0}, "06210": {"name": "VALKENBURG", "icao": "EHVB", "lat": "52.11", "lon": "4.25", "elev": "0", "bundesland": "Südholland", "report_available": 1}, "06235": {"name": "KOOY", "icao": "EHKD", "lat": "52.55", "lon": "4.47", "elev": "0", "bundesland": "Nordholland", "report_available": 1}, "06240": {"name": "AMSTERDAM", "icao": "EHAM", "lat": "52.18", "lon": "4.46", "elev": "-4", "bundesland": "Nordholland", "report_available": 1}, "06242": {"name": "VLIELAND", "icao": "EHVL", "lat": "53.15", "lon": "4.55", "elev": "11", "bundesland": "", "report_available": 0}, "06250": {"name": "TERSCHELLING", "icao": "EHTS", "lat": "53.22", "lon": "5.13", "elev": "26", "bundesland": "Friesland", "report_available": 0}, "06260": {"name": "DE BILT", "icao": "EHDB", "lat": "52.06", "lon": "5.11", "elev": "2", "bundesland": "Utrecht", "report_available": 0}, "06270": {"name": "LEEUWARDEN", "icao": "EHLW", "lat": "53.13", "lon": "5.46", "elev": "1", "bundesland": "Friesland", "report_available": 1}, "06275": {"name": "DEELEN", "icao": "EHDL", "lat": "52.04", "lon": "5.53", "elev": "48", "bundesland": "Gelderland", "report_available": 0}, "06279": {"name": "HOOGEVEEN", "icao": "EHHO", "lat": "52.44", "lon": "6.31", "elev": "12", "bundesland": "Drenthe", "report_available": 0}, "06280": {"name": "GRONINGEN", "icao": "EHGG", "lat": "53.08", "lon": "6.35", "elev": "4", "bundesland": "Drenthe", "report_available": 0}, "06290": {"name": "TWENTHE", "icao": "EHTW", "lat": "52.16", "lon": "6.54", "elev": "35", "bundesland": "Provinz Overijssel", "report_available": 1}, "06310": {"name": "VLISSINGEN", "icao": "----", "lat": "51.26", "lon": "3.36", "elev": "8", "bundesland": "", "report_available": 0}, "06330": {"name": "HOEK V.HOLL.", "icao": "----", "lat": "51.59", "lon": "4.07", "elev": "12", "bundesland": "Südholland", "report_available": 0}, "06344": {"name": "ROTTERDAM", "icao": "EHRD", "lat": "51.57", "lon": "4.27", "elev": "-5", "bundesland": "Südholland", "report_available": 1}, "06350": {"name": "GILZE RIJEN", "icao": "EHGR", "lat": "51.34", "lon": "4.56", "elev": "11", "bundesland": "Nordbrabant", "report_available": 0}, "06370": {"name": "EINDHOVEN", "icao": "EHEH", "lat": "51.27", "lon": "5.25", "elev": "23", "bundesland": "Nordbrabant", "report_available": 1}, "06375": {"name": "VOLKEL", "icao": "EHVK", "lat": "51.39", "lon": "5.42", "elev": "22", "bundesland": "Nordbrabant", "report_available": 1}, "06380": {"name": "MAASTRICHT", "icao": "EHBK", "lat": "50.55", "lon": "5.47", "elev": "114", "bundesland": "Limburg", "report_available": 1}, "06407": {"name": "OOSTENDE", "icao": "EBOS", "lat": "51.12", "lon": "2.52", "elev": "4", "bundesland": "Flämische Region", "report_available": 1}, "06431": {"name": "GENT", "icao": "----", "lat": "51.11", "lon": "3.49", "elev": "10", "bundesland": "Flämische Region", "report_available": 0}, "06449": {"name": "CHARLEROI", "icao": "EBCI", "lat": "50.28", "lon": "4.27", "elev": "187", "bundesland": "Wallonische Region", "report_available": 0}, "06450": {"name": "ANTWERPEN", "icao": "EBAW", "lat": "51.12", "lon": "4.28", "elev": "12", "bundesland": "Flämische Region", "report_available": 0}, "06451": {"name": "BRUESSEL", "icao": "EBBR", "lat": "50.54", "lon": "4.32", "elev": "55", "bundesland": "Flämische Region", "report_available": 0}, "06456": {"name": "FLORENNES", "icao": "EBFS", "lat": "50.14", "lon": "4.40", "elev": "279", "bundesland": "Wallonische Region", "report_available": 0}, "06458": {"name": "BEAUVECHAIN", "icao": "EBBE", "lat": "50.45", "lon": "4.46", "elev": "105", "bundesland": "Wallonische Region", "report_available": 0}, "06476": {"name": "ST.HUBERT", "icao": "EBSH", "lat": "50.02", "lon": "5.24", "elev": "563", "bundesland": "Wallonische Region", "report_available": 1}, "06478": {"name": "BIERSET", "icao": "EBLG", "lat": "50.39", "lon": "5.27", "elev": "178", "bundesland": "Wallonische Region", "report_available": 0}, "06479": {"name": "KLEINE BROGEL", "icao": "EBBL", "lat": "51.10", "lon": "5.28", "elev": "55", "bundesland": "Flämische Region", "report_available": 0}, "06490": {"name": "SPA/LA SAUVENIERE", "icao": "EBSP", "lat": "50.29", "lon": "5.55", "elev": "470", "bundesland": "Wallonische Region", "report_available": 0}, "06496": {"name": "ELSENBORN", "icao": "EBLB", "lat": "50.28", "lon": "6.11", "elev": "564", "bundesland": "Wallonische Region", "report_available": 0}, "06590": {"name": "LUXEMBURG", "icao": "ELLX", "lat": "49.37", "lon": "6.13", "elev": "376", "bundesland": "Luxemburg", "report_available": 1}, "06601": {"name": "BASEL", "icao": "----", "lat": "47.32", "lon": "7.35", "elev": "316", "bundesland": "Basel-Landschaft", "report_available": 0}, "06604": {"name": "NEUCHATEL", "icao": "LSGN", "lat": "47.00", "lon": "6.57", "elev": "485", "bundesland": "Neuenburg", "report_available": 0}, "06605": {"name": "CHASSERAL", "icao": "----", "lat": "47.08", "lon": "7.03", "elev": "1599", "bundesland": "Bern", "report_available": 0}, "06606": {"name": "CRESSIER", "icao": "----", "lat": "47.03", "lon": "7.04", "elev": "431", "bundesland": "Neuenburg", "report_available": 0}, "06609": {"name": "MOLESON", "icao": "----", "lat": "46.33", "lon": "7.01", "elev": "1972", "bundesland": "Freiburg", "report_available": 0}, "06610": {"name": "PAYERNE", "icao": "----", "lat": "46.49", "lon": "6.56", "elev": "490", "bundesland": "Waadt", "report_available": 1}, "06612": {"name": "LA CHAUX DE FONDS", "icao": "LSGC", "lat": "47.05", "lon": "6.48", "elev": "1018", "bundesland": "Neuenburg", "report_available": 0}, "06616": {"name": "FAHY", "icao": "----", "lat": "47.25", "lon": "6.56", "elev": "596", "bundesland": "Bourgogne-Franche-Comté", "report_available": 0}, "06619": {"name": "LA FRETAZ", "icao": "----", "lat": "46.50", "lon": "6.35", "elev": "1202", "bundesland": "Waadt", "report_available": 0}, "06620": {"name": "SCHAFFHAUSEN", "icao": "LSPF", "lat": "47.41", "lon": "8.37", "elev": "437", "bundesland": "Schaffhausen", "report_available": 0}, "06621": {"name": "GUETTINGEN", "icao": "----", "lat": "47.36", "lon": "9.17", "elev": "440", "bundesland": "Thurgau", "report_available": 0}, "06623": {"name": "SALEN-REUTENEN", "icao": "----", "lat": "47.39", "lon": "9.01", "elev": "718", "bundesland": "Thurgau", "report_available": 0}, "06624": {"name": "HALLAU", "icao": "----", "lat": "47.42", "lon": "8.28", "elev": "419", "bundesland": "Schaffhausen", "report_available": 0}, "06625": {"name": "FRIBOURG POSIEUX", "icao": "----", "lat": "46.46", "lon": "7.07", "elev": "646", "bundesland": "Freiburg", "report_available": 0}, "06626": {"name": "GOESGEN (KKW)", "icao": "----", "lat": "47.22", "lon": "7.58", "elev": "380", "bundesland": "Solothurn", "report_available": 0}, "06628": {"name": "PLAFFEIEN-OBERSCH.", "icao": "----", "lat": "46.45", "lon": "7.16", "elev": "1042", "bundesland": "Freiburg", "report_available": 0}, "06629": {"name": "MUEHLEBERG / STOCKER", "icao": "----", "lat": "46.57", "lon": "7.17", "elev": "775", "bundesland": "Bern", "report_available": 0}, "06630": {"name": "BERN", "icao": "LSZB", "lat": "46.55", "lon": "7.30", "elev": "510", "bundesland": "Bern", "report_available": 0}, "06631": {"name": "BERN-LIEBEFELD", "icao": "----", "lat": "46.56", "lon": "7.25", "elev": "565", "bundesland": "Bern", "report_available": 0}, "06632": {"name": "GRENCHEN", "icao": "----", "lat": "47.11", "lon": "7.25", "elev": "430", "bundesland": "Solothurn", "report_available": 0}, "06633": {"name": "BUCHS-SUHR", "icao": "----", "lat": "47.23", "lon": "8.05", "elev": "387", "bundesland": "Aargau", "report_available": 0}, "06635": {"name": "KOPPIGEN", "icao": "----", "lat": "47.07", "lon": "7.37", "elev": "484", "bundesland": "Bern", "report_available": 0}, "06636": {"name": "MUEHLEBERG (KKW)", "icao": "----", "lat": "46.58", "lon": "7.17", "elev": "480", "bundesland": "Bern", "report_available": 0}, "06637": {"name": "MEIRINGEN", "icao": "----", "lat": "46.44", "lon": "8.07", "elev": "589", "bundesland": "Bern", "report_available": 0}, "06638": {"name": "LANGNAU I.E.", "icao": "----", "lat": "46.56", "lon": "7.49", "elev": "745", "bundesland": "Bern", "report_available": 0}, "06639": {"name": "NAPF", "icao": "----", "lat": "47.00", "lon": "7.56", "elev": "1406", "bundesland": "Bern", "report_available": 0}, "06641": {"name": "MOEHLIN", "icao": "----", "lat": "47.34", "lon": "7.53", "elev": "344", "bundesland": "Aargau", "report_available": 0}, "06643": {"name": "WYNAU", "icao": "----", "lat": "47.16", "lon": "7.47", "elev": "422", "bundesland": "Solothurn", "report_available": 0}, "06645": {"name": "RUENENBERG", "icao": "----", "lat": "47.26", "lon": "7.53", "elev": "611", "bundesland": "Basel-Landschaft", "report_available": 0}, "06646": {"name": "BEZNAU", "icao": "----", "lat": "47.34", "lon": "8.14", "elev": "326", "bundesland": "Aargau", "report_available": 0}, "06647": {"name": "WUERENLINGEN", "icao": "----", "lat": "47.32", "lon": "8.14", "elev": "334", "bundesland": "Aargau", "report_available": 0}, "06648": {"name": "EGOLZWIL", "icao": "----", "lat": "47.11", "lon": "8.00", "elev": "521", "bundesland": "Kanton Luzern", "report_available": 0}, "06650": {"name": "LUZERN", "icao": "----", "lat": "47.01", "lon": "8.18", "elev": "456", "bundesland": "Kanton Luzern", "report_available": 0}, "06651": {"name": "SCHUEPFHEIM", "icao": "----", "lat": "46.57", "lon": "8.01", "elev": "742", "bundesland": "Kanton Luzern", "report_available": 0}, "06655": {"name": "ENGELBERG", "icao": "----", "lat": "46.49", "lon": "8.25", "elev": "1036", "bundesland": "Obwalden", "report_available": 0}, "06657": {"name": "GISWIL", "icao": "----", "lat": "46.57", "lon": "8.11", "elev": "475", "bundesland": "Obwalden", "report_available": 0}, "06659": {"name": "PILATUS", "icao": "----", "lat": "46.59", "lon": "8.15", "elev": "2106", "bundesland": "Nidwalden", "report_available": 0}, "06660": {"name": "ZUERICH (TOWN/VILLE)", "icao": "----", "lat": "47.23", "lon": "8.34", "elev": "556", "bundesland": "Zürich", "report_available": 0}, "06664": {"name": "RECKENHOLZ", "icao": "----", "lat": "47.26", "lon": "8.31", "elev": "444", "bundesland": "Zürich", "report_available": 0}, "06666": {"name": "LEIBSTADT (KKW)", "icao": "----", "lat": "47.36", "lon": "8.11", "elev": "341", "bundesland": "Aargau", "report_available": 0}, "06669": {"name": "LAEGERN", "icao": "----", "lat": "47.29", "lon": "8.24", "elev": "868", "bundesland": "Zürich", "report_available": 0}, "06670": {"name": "ZUERICH", "icao": "LSZH", "lat": "47.29", "lon": "8.32", "elev": "436", "bundesland": "Zürich", "report_available": 1}, "06672": {"name": "ALTDORF", "icao": "----", "lat": "46.52", "lon": "8.38", "elev": "449", "bundesland": "Uri", "report_available": 0}, "06673": {"name": "WAEDENSwl", "icao": "----", "lat": "47.13", "lon": "8.41", "elev": "463", "bundesland": "Zürich", "report_available": 0}, "06674": {"name": "CHAM", "icao": "----", "lat": "47.11", "lon": "8.28", "elev": "443", "bundesland": "Zug", "report_available": 0}, "06675": {"name": "EINSIEDELN", "icao": "----", "lat": "47.08", "lon": "8.46", "elev": "910", "bundesland": "Schwyz", "report_available": 0}, "06676": {"name": "OBERAEGERI", "icao": "----", "lat": "47.08", "lon": "8.37", "elev": "724", "bundesland": "Zug", "report_available": 0}, "06678": {"name": "BISCHOFSZELL", "icao": "----", "lat": "47.30", "lon": "9.14", "elev": "470", "bundesland": "Thurgau", "report_available": 0}, "06679": {"name": "TAENIKON", "icao": "----", "lat": "47.28", "lon": "8.54", "elev": "536", "bundesland": "Thurgau", "report_available": 0}, "06680": {"name": "SAENTIS", "icao": "----", "lat": "47.15", "lon": "9.20", "elev": "2502", "bundesland": "Appenzell Ausserrhoden", "report_available": 1}, "06681": {"name": "ST.GALLEN", "icao": "----", "lat": "47.26", "lon": "9.24", "elev": "779", "bundesland": "Sankt Gallen", "report_available": 0}, "06682": {"name": "ELM", "icao": "----", "lat": "46.55", "lon": "9.11", "elev": "958", "bundesland": "Glarus", "report_available": 0}, "06683": {"name": "SCHMERIKON", "icao": "----", "lat": "47.13", "lon": "8.56", "elev": "408", "bundesland": "Sankt Gallen", "report_available": 0}, "06685": {"name": "GLARUS", "icao": "----", "lat": "47.02", "lon": "9.04", "elev": "515", "bundesland": "Glarus", "report_available": 0}, "06687": {"name": "QUINTEN", "icao": "----", "lat": "47.08", "lon": "9.13", "elev": "419", "bundesland": "Sankt Gallen", "report_available": 0}, "06688": {"name": "CRAP MASEGN", "icao": "----", "lat": "46.50", "lon": "9.11", "elev": "2480", "bundesland": "Graubünden", "report_available": 0}, "06689": {"name": "HOERNLI", "icao": "----", "lat": "47.22", "lon": "8.56", "elev": "1144", "bundesland": "Zürich", "report_available": 0}, "06690": {"name": "ALTENRHEIN", "icao": "LSZR", "lat": "47.29", "lon": "9.34", "elev": "398", "bundesland": "Sankt Gallen", "report_available": 0}, "06693": {"name": "EBNAT-KAPPEL", "icao": "----", "lat": "47.16", "lon": "9.07", "elev": "623", "bundesland": "Sankt Gallen", "report_available": 0}, "06700": {"name": "GENF", "icao": "LSGG", "lat": "46.15", "lon": "6.08", "elev": "420", "bundesland": "Genf", "report_available": 1}, "06702": {"name": "LA DOLE", "icao": "----", "lat": "46.25", "lon": "6.06", "elev": "1670", "bundesland": "Waadt", "report_available": 0}, "06704": {"name": "BIERE", "icao": "----", "lat": "46.32", "lon": "6.20", "elev": "684", "bundesland": "Waadt", "report_available": 0}, "06705": {"name": "CHANGINS", "icao": "----", "lat": "46.24", "lon": "6.14", "elev": "430", "bundesland": "Waadt", "report_available": 0}, "06710": {"name": "LAUSANNE", "icao": "LSGL", "lat": "46.33", "lon": "6.37", "elev": "616", "bundesland": "Waadt", "report_available": 0}, "06711": {"name": "PULLY", "icao": "----", "lat": "46.31", "lon": "6.40", "elev": "461", "bundesland": "Waadt", "report_available": 0}, "06712": {"name": "AIGLE", "icao": "----", "lat": "46.20", "lon": "6.55", "elev": "381", "bundesland": "Wallis", "report_available": 0}, "06717": {"name": "GRAND-ST-BERNARD", "icao": "----", "lat": "45.52", "lon": "7.10", "elev": "2472", "bundesland": "Wallis", "report_available": 0}, "06720": {"name": "SION", "icao": "LSGS", "lat": "46.13", "lon": "7.20", "elev": "482", "bundesland": "Wallis", "report_available": 1}, "06722": {"name": "EVOLENE-VILLAZ", "icao": "----", "lat": "46.07", "lon": "7.31", "elev": "1825", "bundesland": "Wallis", "report_available": 0}, "06724": {"name": "MONTANA", "icao": "----", "lat": "46.19", "lon": "7.29", "elev": "1508", "bundesland": "Wallis", "report_available": 0}, "06727": {"name": "VISP", "icao": "----", "lat": "46.18", "lon": "7.50", "elev": "639", "bundesland": "Wallis", "report_available": 0}, "06730": {"name": "JUNGFRAUJOCH", "icao": "----", "lat": "46.29", "lon": "8.02", "elev": "3580", "bundesland": "Wallis", "report_available": 0}, "06734": {"name": "INTERLAKEN", "icao": "LSMI", "lat": "46.40", "lon": "7.52", "elev": "580", "bundesland": "Bern", "report_available": 0}, "06735": {"name": "ADELBODEN", "icao": "----", "lat": "46.30", "lon": "7.34", "elev": "1320", "bundesland": "Bern", "report_available": 0}, "06744": {"name": "GRIMSEL-HOSPIZ", "icao": "----", "lat": "46.34", "lon": "8.20", "elev": "1980", "bundesland": "Bern", "report_available": 0}, "06745": {"name": "ULRICHEN", "icao": "----", "lat": "46.30", "lon": "8.19", "elev": "1346", "bundesland": "Wallis", "report_available": 0}, "06748": {"name": "ZERMATT", "icao": "LSEZ", "lat": "46.02", "lon": "7.45", "elev": "1638", "bundesland": "Wallis", "report_available": 0}, "06750": {"name": "GUETSCH", "icao": "----", "lat": "46.39", "lon": "8.37", "elev": "2287", "bundesland": "Uri", "report_available": 0}, "06751": {"name": "ROBIEI", "icao": "----", "lat": "46.27", "lon": "8.31", "elev": "1898", "bundesland": "Tessin", "report_available": 0}, "06753": {"name": "PIOTTA", "icao": "----", "lat": "46.31", "lon": "8.41", "elev": "1007", "bundesland": "Tessin", "report_available": 0}, "06756": {"name": "COMPROVASCO", "icao": "----", "lat": "46.28", "lon": "8.56", "elev": "575", "bundesland": "Tessin", "report_available": 0}, "06759": {"name": "CIMETTA", "icao": "----", "lat": "46.12", "lon": "8.48", "elev": "1672", "bundesland": "Tessin", "report_available": 0}, "06760": {"name": "LOCARNO-MONTI", "icao": "----", "lat": "46.10", "lon": "8.47", "elev": "367", "bundesland": "Tessin", "report_available": 0}, "06762": {"name": "LOCARNO", "icao": "LSZL", "lat": "46.10", "lon": "8.53", "elev": "197", "bundesland": "Tessin", "report_available": 0}, "06770": {"name": "LUGANO", "icao": "----", "lat": "46.00", "lon": "8.58", "elev": "273", "bundesland": "Tessin", "report_available": 0}, "06771": {"name": "STABIO", "icao": "----", "lat": "45.50", "lon": "8.56", "elev": "353", "bundesland": "Lombardei", "report_available": 0}, "06775": {"name": "LUGANO", "icao": "LSZA", "lat": "46.00", "lon": "8.54", "elev": "279", "bundesland": "Tessin", "report_available": 0}, "06778": {"name": "BUFFALORA", "icao": "----", "lat": "46.39", "lon": "10.16", "elev": "1968", "bundesland": "Graubünden", "report_available": 0}, "06780": {"name": "WEISSFLUHJOCH", "icao": "----", "lat": "46.50", "lon": "9.49", "elev": "2691", "bundesland": "Graubünden", "report_available": 0}, "06782": {"name": "DISENTIS", "icao": "----", "lat": "46.42", "lon": "8.51", "elev": "1190", "bundesland": "Graubünden", "report_available": 0}, "06783": {"name": "SAN BERNARDINO", "icao": "----", "lat": "46.28", "lon": "9.11", "elev": "1639", "bundesland": "Graubünden", "report_available": 0}, "06784": {"name": "DAVOS", "icao": "----", "lat": "46.49", "lon": "9.51", "elev": "1590", "bundesland": "Graubünden", "report_available": 0}, "06786": {"name": "CHUR", "icao": "----", "lat": "46.52", "lon": "9.32", "elev": "556", "bundesland": "Graubünden", "report_available": 0}, "06787": {"name": "ANDEER", "icao": "----", "lat": "46.37", "lon": "9.25", "elev": "989", "bundesland": "Graubünden", "report_available": 0}, "06788": {"name": "HINTERRHEIN", "icao": "----", "lat": "46.31", "lon": "9.11", "elev": "1611", "bundesland": "Graubünden", "report_available": 0}, "06790": {"name": "ST.MORITZ", "icao": "----", "lat": "46.30", "lon": "9.51", "elev": "1850", "bundesland": "Graubünden", "report_available": 0}, "06791": {"name": "CORVATSCH", "icao": "----", "lat": "46.25", "lon": "9.49", "elev": "3315", "bundesland": "Graubünden", "report_available": 0}, "06792": {"name": "SAMEDAN", "icao": "LSXM", "lat": "46.32", "lon": "9.53", "elev": "1709", "bundesland": "Graubünden", "report_available": 0}, "06793": {"name": "VALBELLA", "icao": "----", "lat": "46.46", "lon": "9.33", "elev": "1569", "bundesland": "Graubünden", "report_available": 0}, "06794": {"name": "ROBBIA", "icao": "----", "lat": "46.21", "lon": "10.04", "elev": "1078", "bundesland": "Graubünden", "report_available": 0}, "06795": {"name": "PIZ MARTEGNAS", "icao": "----", "lat": "46.35", "lon": "9.32", "elev": "2670", "bundesland": "Graubünden", "report_available": 0}, "06796": {"name": "STA. MARIA VAL MUEST", "icao": "----", "lat": "46.36", "lon": "10.26", "elev": "1383", "bundesland": "Graubünden", "report_available": 0}, "06798": {"name": "SCOULS", "icao": "----", "lat": "46.48", "lon": "10.16", "elev": "1298", "bundesland": "Graubünden", "report_available": 0}, "06799": {"name": "NALUNS / SCHLIVERA", "icao": "----", "lat": "46.49", "lon": "10.16", "elev": "2400", "bundesland": "Graubünden", "report_available": 0}, "06990": {"name": "VADUZ FL.", "icao": "----", "lat": "47.08", "lon": "9.31", "elev": "460", "bundesland": "Vaduz", "report_available": 1}, "07002": {"name": "BOULOGNE", "icao": "----", "lat": "50.44", "lon": "1.36", "elev": "70", "bundesland": "Hauts-de-France", "report_available": 0}, "07005": {"name": "ABBEVILLE", "icao": "LFOI", "lat": "50.08", "lon": "1.50", "elev": "70", "bundesland": "Hauts-de-France", "report_available": 1}, "07015": {"name": "LILLE", "icao": "LFQQ", "lat": "50.34", "lon": "3.06", "elev": "48", "bundesland": "Hauts-de-France", "report_available": 1}, "07017": {"name": "CAMBRAI", "icao": "LFQI", "lat": "50.13", "lon": "3.09", "elev": "77", "bundesland": "Hauts-de-France", "report_available": 0}, "07020": {"name": "LA HAGUE", "icao": "----", "lat": "49.43", "lon": "-1.56", "elev": "3", "bundesland": "", "report_available": 1}, "07024": {"name": "CHERBOURG", "icao": "LFRC", "lat": "49.39", "lon": "-1.28", "elev": "139", "bundesland": "", "report_available": 0}, "07027": {"name": "CAEN", "icao": "LFRK", "lat": "49.11", "lon": "-0.27", "elev": "67", "bundesland": "Normandie", "report_available": 1}, "07028": {"name": "LA HEVE", "icao": "LFOH", "lat": "49.31", "lon": "0.04", "elev": "100", "bundesland": "Normandie", "report_available": 0}, "07037": {"name": "ROUEN", "icao": "LFOP", "lat": "49.23", "lon": "1.11", "elev": "157", "bundesland": "Normandie", "report_available": 1}, "07038": {"name": "EVREUX", "icao": "LFOE", "lat": "49.01", "lon": "1.13", "elev": "132", "bundesland": "Normandie", "report_available": 0}, "07040": {"name": "DIEPPE", "icao": "----", "lat": "49.56", "lon": "1.06", "elev": "33", "bundesland": "Normandie", "report_available": 0}, "07055": {"name": "BEAUVAIS", "icao": "LFOB", "lat": "49.28", "lon": "2.07", "elev": "106", "bundesland": "Hauts-de-France", "report_available": 0}, "07061": {"name": "SAINT-QUENTIN", "icao": "LFOW", "lat": "49.49", "lon": "3.12", "elev": "98", "bundesland": "Hauts-de-France", "report_available": 0}, "07070": {"name": "REIMS", "icao": "LFSR", "lat": "49.18", "lon": "4.02", "elev": "91", "bundesland": "Grand Est", "report_available": 0}, "07075": {"name": "CHARLEVILLE", "icao": "LFQV", "lat": "49.47", "lon": "4.38", "elev": "149", "bundesland": "Grand Est", "report_available": 0}, "07090": {"name": "METZ", "icao": "LFSF", "lat": "49.05", "lon": "6.08", "elev": "190", "bundesland": "Grand Est", "report_available": 0}, "07093": {"name": "M.N.L.", "icao": "----", "lat": "48.59", "lon": "6.15", "elev": "260", "bundesland": "Grand Est", "report_available": 0}, "07100": {"name": "OUESSANT", "icao": "LFEC", "lat": "48.28", "lon": "-5.08", "elev": "35", "bundesland": "", "report_available": 0}, "07110": {"name": "BREST", "icao": "LFRB", "lat": "48.27", "lon": "-4.25", "elev": "99", "bundesland": "Bretagne", "report_available": 1}, "07120": {"name": "ST.BRIEUC", "icao": "LFRT", "lat": "48.32", "lon": "-2.51", "elev": "136", "bundesland": "Normandie", "report_available": 1}, "07125": {"name": "DINARD APT", "icao": "LFRD", "lat": "48.35", "lon": "-2.04", "elev": "58", "bundesland": "Bretagne", "report_available": 0}, "07130": {"name": "RENNES", "icao": "LFRN", "lat": "48.04", "lon": "-1.44", "elev": "37", "bundesland": "Pays de la Loire", "report_available": 1}, "07133": {"name": "POINTE DU ROC", "icao": "----", "lat": "48.50", "lon": "-1.37", "elev": "37", "bundesland": "Normandie", "report_available": 0}, "07139": {"name": "ALENCON", "icao": "LFOF", "lat": "48.26", "lon": "0.06", "elev": "144", "bundesland": "Normandie", "report_available": 1}, "07143": {"name": "CHARTRES", "icao": "LFOR", "lat": "48.28", "lon": "1.31", "elev": "155", "bundesland": "Centre", "report_available": 0}, "07149": {"name": "PARIS", "icao": "LFPO", "lat": "48.44", "lon": "2.24", "elev": "89", "bundesland": "Île-de-France", "report_available": 1}, "07150": {"name": "PARIS-LE BOURGET", "icao": "LFPB", "lat": "48.58", "lon": "2.26", "elev": "67", "bundesland": "Île-de-France", "report_available": 0}, "07157": {"name": "PARIS CH.D.GAULLE", "icao": "LFPG", "lat": "49.01", "lon": "2.32", "elev": "108", "bundesland": "Île-de-France", "report_available": 0}, "07166": {"name": "VATRY-AERO", "icao": "LFOK", "lat": "48.47", "lon": "4.10", "elev": "179", "bundesland": "Grand Est", "report_available": 0}, "07168": {"name": "TROYES", "icao": "LFQB", "lat": "48.20", "lon": "4.01", "elev": "112", "bundesland": "Grand Est", "report_available": 1}, "07169": {"name": "ST. DIZIER", "icao": "LFSI", "lat": "48.38", "lon": "4.54", "elev": "139", "bundesland": "Grand Est", "report_available": 0}, "07173": {"name": "EPINAL", "icao": "----", "lat": "48.12", "lon": "6.26", "elev": "317", "bundesland": "Grand Est", "report_available": 0}, "07180": {"name": "NANCY", "icao": "LFSN", "lat": "48.41", "lon": "6.13", "elev": "229", "bundesland": "Grand Est", "report_available": 1}, "07181": {"name": "NANCY-OCHEY", "icao": "----", "lat": "48.35", "lon": "5.58", "elev": "336", "bundesland": "Grand Est", "report_available": 0}, "07190": {"name": "STRASSBURG", "icao": "LFST", "lat": "48.33", "lon": "7.38", "elev": "153", "bundesland": "Grand Est", "report_available": 1}, "07197": {"name": "COLMAR", "icao": "LFSC", "lat": "47.55", "lon": "7.24", "elev": "211", "bundesland": "Grand Est", "report_available": 0}, "07200": {"name": "PENMARCH", "icao": "----", "lat": "47.48", "lon": "-4.22", "elev": "6", "bundesland": "Bretagne", "report_available": 0}, "07201": {"name": "QUIMPER", "icao": "LFRQ", "lat": "47.58", "lon": "-4.10", "elev": "92", "bundesland": "Bretagne", "report_available": 0}, "07205": {"name": "LANN BIHOUE", "icao": "LFRH", "lat": "47.46", "lon": "-3.27", "elev": "42", "bundesland": "Bretagne", "report_available": 0}, "07222": {"name": "NANTES", "icao": "LFRS", "lat": "47.10", "lon": "-1.36", "elev": "27", "bundesland": "Pays de la Loire", "report_available": 1}, "07235": {"name": "LE MANS", "icao": "LFRM", "lat": "47.57", "lon": "0.12", "elev": "52", "bundesland": "Pays de la Loire", "report_available": 0}, "07240": {"name": "TOURS", "icao": "LFOT", "lat": "47.27", "lon": "0.43", "elev": "108", "bundesland": "Centre", "report_available": 1}, "07249": {"name": "ORLEANS", "icao": "LFOJ", "lat": "47.59", "lon": "1.47", "elev": "125", "bundesland": "Centre", "report_available": 0}, "07255": {"name": "BOURGES", "icao": "LFLD", "lat": "47.04", "lon": "2.22", "elev": "161", "bundesland": "Centre", "report_available": 1}, "07260": {"name": "NEVERS", "icao": "LFQG", "lat": "47.00", "lon": "3.06", "elev": "175", "bundesland": "Bourgogne-Franche-Comté", "report_available": 0}, "07265": {"name": "AUXERRE", "icao": "LFLA", "lat": "47.48", "lon": "3.33", "elev": "207", "bundesland": "Bourgogne-Franche-Comté", "report_available": 0}, "07280": {"name": "DIJON", "icao": "LFSD", "lat": "47.16", "lon": "5.05", "elev": "219", "bundesland": "Bourgogne-Franche-Comté", "report_available": 1}, "07288": {"name": "BESANCON", "icao": "LFSA", "lat": "47.15", "lon": "5.59", "elev": "307", "bundesland": "Bourgogne-Franche-Comté", "report_available": 0}, "07299": {"name": "BASEL-MLH.", "icao": "LFSB", "lat": "47.36", "lon": "7.31", "elev": "270", "bundesland": "Grand Est", "report_available": 1}, "07306": {"name": "LA ROCHE-SUR-YON", "icao": "LFRI", "lat": "46.42", "lon": "-1.23", "elev": "90", "bundesland": "Nouvelle-Aquitaine", "report_available": 0}, "07315": {"name": "LA ROCHELLE", "icao": "----", "lat": "46.09", "lon": "-1.09", "elev": "4", "bundesland": "Nouvelle-Aquitaine", "report_available": 0}, "07335": {"name": "POITIERS", "icao": "LFBI", "lat": "46.35", "lon": "0.18", "elev": "120", "bundesland": "Nouvelle-Aquitaine", "report_available": 1}, "07354": {"name": "CHATEAUROUX", "icao": "LFLX", "lat": "46.52", "lon": "1.43", "elev": "155", "bundesland": "Centre", "report_available": 0}, "07379": {"name": "SAINT-YAN.", "icao": "LFLN", "lat": "46.25", "lon": "4.01", "elev": "242", "bundesland": "Bourgogne-Franche-Comté", "report_available": 0}, "07385": {"name": "MACON", "icao": "LFLM", "lat": "46.18", "lon": "4.48", "elev": "216", "bundesland": "Bourgogne-Franche-Comté", "report_available": 0}, "07434": {"name": "LIMOGES", "icao": "LFBL", "lat": "45.52", "lon": "1.11", "elev": "402", "bundesland": "Nouvelle-Aquitaine", "report_available": 1}, "07460": {"name": "CLERMONT", "icao": "LFLC", "lat": "45.47", "lon": "3.10", "elev": "329", "bundesland": "Auvergne-Rhône-Alpes", "report_available": 1}, "07475": {"name": "ST. ETIENNE", "icao": "LFMH", "lat": "45.32", "lon": "4.18", "elev": "402", "bundesland": "Auvergne-Rhône-Alpes", "report_available": 0}, "07480": {"name": "LYON/BRON", "icao": "LFLY", "lat": "45.43", "lon": "4.57", "elev": "200", "bundesland": "Auvergne-Rhône-Alpes", "report_available": 0}, "07481": {"name": "LYON/SATOLAS", "icao": "LFLL", "lat": "45.44", "lon": "5.05", "elev": "248", "bundesland": "Auvergne-Rhône-Alpes", "report_available": 1}, "07486": {"name": "GRENOBLE", "icao": "LFLS", "lat": "45.22", "lon": "5.20", "elev": "384", "bundesland": "Auvergne-Rhône-Alpes", "report_available": 0}, "07491": {"name": "CHAMBERY - AIX", "icao": "LFLB", "lat": "45.39", "lon": "5.53", "elev": "235", "bundesland": "Auvergne-Rhône-Alpes", "report_available": 0}, "07497": {"name": "BOURG-ST-M", "icao": "----", "lat": "45.37", "lon": "6.46", "elev": "865", "bundesland": "Auvergne-Rhône-Alpes", "report_available": 0}, "07510": {"name": "BORDEAUX", "icao": "LFBD", "lat": "44.50", "lon": "-0.42", "elev": "49", "bundesland": "Nouvelle-Aquitaine", "report_available": 1}, "07558": {"name": "MILLAU", "icao": "LFCM", "lat": "44.07", "lon": "3.01", "elev": "715", "bundesland": "Okzitanien", "report_available": 1}, "07577": {"name": "MONTELIMAR", "icao": "LFLQ", "lat": "44.35", "lon": "4.44", "elev": "73", "bundesland": "Auvergne-Rhône-Alpes", "report_available": 1}, "07579": {"name": "ORANGE", "icao": "LFMO", "lat": "44.08", "lon": "4.50", "elev": "53", "bundesland": "Provence-Alpes-Côte d'Azur", "report_available": 0}, "07588": {"name": "ST.AUBAN", "icao": "LFMX", "lat": "44.04", "lon": "6.00", "elev": "457", "bundesland": "Provence-Alpes-Côte d'Azur", "report_available": 0}, "07593": {"name": "BRIANCON", "icao": "----", "lat": "44.55", "lon": "6.39", "elev": "1328", "bundesland": "Provence-Alpes-Côte d'Azur", "report_available": 0}, "07600": {"name": "SOCOA", "icao": "----", "lat": "43.24", "lon": "-1.41", "elev": "24", "bundesland": "Nouvelle-Aquitaine", "report_available": 0}, "07602": {"name": "BIARRITZ", "icao": "LFBZ", "lat": "43.28", "lon": "-1.32", "elev": "69", "bundesland": "Nouvelle-Aquitaine", "report_available": 0}, "07610": {"name": "PAU", "icao": "----", "lat": "43.23", "lon": "-0.25", "elev": "185", "bundesland": "Okzitanien", "report_available": 0}, "07621": {"name": "TARBES/OSSUN", "icao": "LFBT", "lat": "43.11", "lon": "0.00", "elev": "364", "bundesland": "Okzitanien", "report_available": 1}, "07622": {"name": "AUCH", "icao": "LFDH", "lat": "43.41", "lon": "0.36", "elev": "121", "bundesland": "Okzitanien", "report_available": 0}, "07630": {"name": "TOULOUSE", "icao": "LFBO", "lat": "43.38", "lon": "1.22", "elev": "152", "bundesland": "Okzitanien", "report_available": 1}, "07635": {"name": "CARCASSONNE", "icao": "LFMK", "lat": "43.13", "lon": "2.19", "elev": "126", "bundesland": "Okzitanien", "report_available": 0}, "07638": {"name": "BEZIER-VIAS", "icao": "----", "lat": "43.18", "lon": "3.24", "elev": "16", "bundesland": "Okzitanien", "report_available": 0}, "07643": {"name": "MONTPELLIER", "icao": "LFMT", "lat": "43.35", "lon": "3.58", "elev": "3", "bundesland": "Okzitanien", "report_available": 1}, "07645": {"name": "NIMES/COURBESSAC", "icao": "LFME", "lat": "43.52", "lon": "4.24", "elev": "59", "bundesland": "Okzitanien", "report_available": 0}, "07648": {"name": "SALON", "icao": "LFMY", "lat": "43.36", "lon": "5.06", "elev": "59", "bundesland": "Provence-Alpes-Côte d'Azur", "report_available": 0}, "07650": {"name": "MARSEILLE", "icao": "LFML", "lat": "43.27", "lon": "5.13", "elev": "5", "bundesland": "", "report_available": 1}, "07667": {"name": "HYERES/ALMANARRE", "icao": "LFTH", "lat": "43.06", "lon": "6.09", "elev": "3", "bundesland": "Provence-Alpes-Côte d'Azur", "report_available": 0}, "07670": {"name": "PORQUEROLLES", "icao": "----", "lat": "43.00", "lon": "6.14", "elev": "143", "bundesland": "Provence-Alpes-Côte d'Azur", "report_available": 0}, "07675": {"name": "LE LUC", "icao": "LFMC", "lat": "43.23", "lon": "6.23", "elev": "80", "bundesland": "Provence-Alpes-Côte d'Azur", "report_available": 0}, "07680": {"name": "ST.RAPHAEL", "icao": "LFTU", "lat": "43.25", "lon": "6.45", "elev": "2", "bundesland": "Provence-Alpes-Côte d'Azur", "report_available": 0}, "07684": {"name": "CANNES", "icao": "LFMD", "lat": "43.33", "lon": "6.57", "elev": "3", "bundesland": "Provence-Alpes-Côte d'Azur", "report_available": 0}, "07690": {"name": "NIZZA", "icao": "LFMN", "lat": "43.39", "lon": "7.12", "elev": "4", "bundesland": "", "report_available": 1}, "07695": {"name": "CAP FERRAT", "icao": "----", "lat": "43.41", "lon": "7.20", "elev": "138", "bundesland": "Provence-Alpes-Côte d'Azur", "report_available": 0}, "07747": {"name": "PERPIGNAN", "icao": "LFMP", "lat": "42.44", "lon": "2.52", "elev": "43", "bundesland": "Okzitanien", "report_available": 1}, "07754": {"name": "CALVI", "icao": "LFKC", "lat": "42.32", "lon": "8.48", "elev": "46", "bundesland": "Korsika", "report_available": 0}, "07761": {"name": "AJACCIO", "icao": "LFKJ", "lat": "41.55", "lon": "8.48", "elev": "6", "bundesland": "Korsika", "report_available": 1}, "07770": {"name": "PERTUSATO / CORSICA", "icao": "----", "lat": "41.22", "lon": "9.11", "elev": "105", "bundesland": "Korsika", "report_available": 0}, "07780": {"name": "FIGARI", "icao": "LFKF", "lat": "41.30", "lon": "9.06", "elev": "26", "bundesland": "Korsika", "report_available": 0}, "07785": {"name": "CAP CORSE", "icao": "----", "lat": "43.00", "lon": "9.22", "elev": "111", "bundesland": "Korsika", "report_available": 0}, "07790": {"name": "BASTIA", "icao": "LFKB", "lat": "42.33", "lon": "9.29", "elev": "10", "bundesland": "Korsika", "report_available": 1}, "08001": {"name": "LA CORUNA", "icao": "LECO", "lat": "43.22", "lon": "-8.25", "elev": "58", "bundesland": "Galicien", "report_available": 1}, "08009": {"name": "RIBADEO", "icao": "----", "lat": "43.32", "lon": "-7.01", "elev": "25", "bundesland": "Asturien", "report_available": 0}, "08013": {"name": "AVILES/DIV.PAST", "icao": "----", "lat": "43.33", "lon": "-5.55", "elev": "10", "bundesland": "", "report_available": 0}, "08014": {"name": "GIJON", "icao": "----", "lat": "43.32", "lon": "-5.38", "elev": "3", "bundesland": "", "report_available": 0}, "08015": {"name": "OVIEDO", "icao": "LEOV", "lat": "43.21", "lon": "-5.52", "elev": "335", "bundesland": "Kantabrien", "report_available": 1}, "08021": {"name": "SANTANDER/PARAYAS", "icao": "LEXJ", "lat": "43.26", "lon": "-3.49", "elev": "6", "bundesland": "", "report_available": 0}, "08023": {"name": "SANTANDER", "icao": "----", "lat": "43.29", "lon": "-3.48", "elev": "52", "bundesland": "", "report_available": 1}, "08025": {"name": "BILBAO", "icao": "LEBB", "lat": "43.18", "lon": "-2.56", "elev": "42", "bundesland": "Nouvelle-Aquitaine", "report_available": 0}, "08027": {"name": "SAN SEBASTIAN/IGUEL.", "icao": "----", "lat": "43.18", "lon": "-2.03", "elev": "258", "bundesland": "Autonome Gemeinschaft Baskenland", "report_available": 1}, "08029": {"name": "SAN SEBASTIAN/FUENT.", "icao": "LESO", "lat": "43.21", "lon": "-1.48", "elev": "5", "bundesland": "Nouvelle-Aquitaine", "report_available": 0}, "08040": {"name": "FISTERRA", "icao": "----", "lat": "42.56", "lon": "-9.17", "elev": "98", "bundesland": "Galicien", "report_available": 0}, "08042": {"name": "SANTIAGO", "icao": "LEST", "lat": "42.54", "lon": "-8.26", "elev": "370", "bundesland": "Galicien", "report_available": 0}, "08045": {"name": "VIGO/PEINADOR", "icao": "LEVX", "lat": "42.13", "lon": "-8.38", "elev": "264", "bundesland": "Galicien", "report_available": 1}, "08055": {"name": "LEON", "icao": "LELN", "lat": "42.35", "lon": "-5.39", "elev": "926", "bundesland": "Kastilien und León", "report_available": 1}, "08075": {"name": "BURGOS-VILLAFRIA", "icao": "----", "lat": "42.22", "lon": "-3.38", "elev": "894", "bundesland": "La Rioja", "report_available": 1}, "08080": {"name": "VITORIA OBSERVATORI", "icao": "----", "lat": "42.52", "lon": "-2.44", "elev": "513", "bundesland": "Navarra", "report_available": 0}, "08140": {"name": "VALLADOLID", "icao": "LEVD", "lat": "41.43", "lon": "-4.51", "elev": "849", "bundesland": "Kastilien und León", "report_available": 0}, "08141": {"name": "VALLADOLID", "icao": "----", "lat": "41.38", "lon": "-4.45", "elev": "735", "bundesland": "Kastilien und León", "report_available": 1}, "08160": {"name": "ZARAGOZA", "icao": "LEZG", "lat": "41.40", "lon": "-1.01", "elev": "263", "bundesland": "Aragonien", "report_available": 1}, "08171": {"name": "LERIDA", "icao": "----", "lat": "41.37", "lon": "0.38", "elev": "203", "bundesland": "Katalonien", "report_available": 1}, "08175": {"name": "REUS", "icao": "LERS", "lat": "41.09", "lon": "1.10", "elev": "71", "bundesland": "Katalonien", "report_available": 0}, "08181": {"name": "BARCELONA", "icao": "LEBL", "lat": "41.17", "lon": "2.04", "elev": "4", "bundesland": "Katalonien", "report_available": 1}, "08183": {"name": "SABADELL", "icao": "LELL", "lat": "41.31", "lon": "2.07", "elev": "148", "bundesland": "Katalonien", "report_available": 0}, "08184": {"name": "GERONA/COST.BRAVA", "icao": "LEGE", "lat": "41.54", "lon": "2.46", "elev": "143", "bundesland": "Katalonien", "report_available": 1}, "08202": {"name": "SALAMANCA/MATACAN", "icao": "LESA", "lat": "40.57", "lon": "-5.30", "elev": "793", "bundesland": "Kastilien und León", "report_available": 1}, "08221": {"name": "MADRID/BARAJAS", "icao": "LEMD", "lat": "40.27", "lon": "-3.33", "elev": "609", "bundesland": "Kastilien-La Mancha", "report_available": 1}, "08227": {"name": "MADRID", "icao": "LETO", "lat": "40.29", "lon": "-3.27", "elev": "607", "bundesland": "Kastilien-La Mancha", "report_available": 0}, "08272": {"name": "TOLEDO BUENAVISTA", "icao": "----", "lat": "39.53", "lon": "-4.03", "elev": "451", "bundesland": "Kastilien-La Mancha", "report_available": 1}, "08280": {"name": "ALBACETE/LOS LLANOS", "icao": "LEAB", "lat": "38.57", "lon": "-1.51", "elev": "702", "bundesland": "Land Valencia", "report_available": 1}, "08284": {"name": "VALENCIA", "icao": "LEVC", "lat": "39.30", "lon": "-0.28", "elev": "69", "bundesland": "", "report_available": 1}, "08286": {"name": "CASTELLON DE LA PLAN", "icao": "LECN", "lat": "39.57", "lon": "0.04", "elev": "36", "bundesland": "", "report_available": 0}, "08306": {"name": "PALMA", "icao": "LEPA", "lat": "39.33", "lon": "2.44", "elev": "4", "bundesland": "Balearische Inseln", "report_available": 1}, "08307": {"name": "POLLENSA", "icao": "----", "lat": "39.54", "lon": "3.06", "elev": "2", "bundesland": "", "report_available": 0}, "08314": {"name": "MENORCA", "icao": "LEMH", "lat": "39.52", "lon": "4.14", "elev": "87", "bundesland": "Balearische Inseln", "report_available": 1}, "08330": {"name": "BADAJOZ/TALAVERA", "icao": "LEBZ", "lat": "38.53", "lon": "-6.49", "elev": "185", "bundesland": "Extremadura", "report_available": 1}, "08360": {"name": "ALICANTE", "icao": "LEAL", "lat": "38.17", "lon": "-0.33", "elev": "43", "bundesland": "", "report_available": 1}, "08370": {"name": "JAVEA/YUNTAMIEN", "icao": "----", "lat": "38.47", "lon": "-0.10", "elev": "15", "bundesland": "Land Valencia", "report_available": 0}, "08373": {"name": "IBIZA", "icao": "LEIB", "lat": "38.52", "lon": "1.23", "elev": "17", "bundesland": "Balearische Inseln", "report_available": 1}, "08383": {"name": "HUELVA", "icao": "----", "lat": "37.17", "lon": "-6.55", "elev": "19", "bundesland": "Andalusien", "report_available": 0}, "08390": {"name": "SEVILLA", "icao": "LEZL", "lat": "37.22", "lon": "-6.00", "elev": "8", "bundesland": "Andalusien", "report_available": 0}, "08391": {"name": "SEVILLA/SAN PABLO", "icao": "----", "lat": "37.25", "lon": "-5.53", "elev": "34", "bundesland": "Andalusien", "report_available": 1}, "08397": {"name": "MORON DE LA FRONTERA", "icao": "LEMO", "lat": "37.09", "lon": "-5.37", "elev": "87", "bundesland": "Andalusien", "report_available": 0}, "08410": {"name": "CORDOBA", "icao": "LEBA", "lat": "37.51", "lon": "-4.51", "elev": "90", "bundesland": "Andalusien", "report_available": 1}, "08419": {"name": "GRANADA/AEROPUERTO", "icao": "LEGR", "lat": "37.11", "lon": "-3.47", "elev": "567", "bundesland": "Andalusien", "report_available": 1}, "08430": {"name": "MURCIA", "icao": "----", "lat": "38.00", "lon": "-1.10", "elev": "61", "bundesland": "Land Valencia", "report_available": 1}, "08432": {"name": "AGUILAS", "icao": "----", "lat": "37.25", "lon": "-1.35", "elev": "33", "bundesland": "", "report_available": 0}, "08433": {"name": "MURCIA/SAN JAVIER", "icao": "LELC", "lat": "37.47", "lon": "-0.48", "elev": "5", "bundesland": "", "report_available": 0}, "08451": {"name": "JEREZ DE LA FRONTERA", "icao": "LEJR", "lat": "36.45", "lon": "-6.04", "elev": "27", "bundesland": "Andalusien", "report_available": 1}, "08482": {"name": "MALAGA", "icao": "LEMG", "lat": "36.40", "lon": "-4.29", "elev": "16", "bundesland": "", "report_available": 1}, "08485": {"name": "MOTRIL/CLUB NAUTICO", "icao": "----", "lat": "36.43", "lon": "-3.32", "elev": "3", "bundesland": "", "report_available": 0}, "08487": {"name": "ALMERIA", "icao": "LEAM", "lat": "36.51", "lon": "-2.23", "elev": "15", "bundesland": "", "report_available": 1}, "08495": {"name": "GIBRALTAR", "icao": "LXGB", "lat": "36.09", "lon": "-5.21", "elev": "5", "bundesland": "", "report_available": 0}, "08501": {"name": "FLORES/AZOREN", "icao": "LPFL", "lat": "39.27", "lon": "-31.08", "elev": "28", "bundesland": "", "report_available": 1}, "08505": {"name": "AZOREN", "icao": "LPHR", "lat": "38.31", "lon": "-28.43", "elev": "40", "bundesland": "", "report_available": 1}, "08509": {"name": "LAJES/AZOREN", "icao": "LPLA", "lat": "38.46", "lon": "-27.06", "elev": "52", "bundesland": "", "report_available": 1}, "08513": {"name": "PONTA DELGADA", "icao": "----", "lat": "37.45", "lon": "-25.40", "elev": "35", "bundesland": "", "report_available": 0}, "08515": {"name": "SANTA MARIA", "icao": "LPAZ", "lat": "36.58", "lon": "-25.10", "elev": "100", "bundesland": "", "report_available": 1}, "08521": {"name": "FUNCHAL", "icao": "LPFU", "lat": "32.41", "lon": "-16.46", "elev": "58", "bundesland": "", "report_available": 1}, "08532": {"name": "SINTRA/GRANJA", "icao": "LPST", "lat": "38.50", "lon": "-9.20", "elev": "134", "bundesland": "Distrikt Santarém", "report_available": 0}, "08536": {"name": "LISSABON", "icao": "LPPT", "lat": "38.47", "lon": "-9.08", "elev": "114", "bundesland": "Distrikt Santarém", "report_available": 0}, "08538": {"name": "SAGRES", "icao": "----", "lat": "37.00", "lon": "-8.57", "elev": "25", "bundesland": "", "report_available": 0}, "08540": {"name": "MONTE REAL", "icao": "LPMR", "lat": "39.50", "lon": "-8.53", "elev": "52", "bundesland": "Distrikt Castelo Branco", "report_available": 1}, "08541": {"name": "SINES (MONTES CHAOS)", "icao": "----", "lat": "37.57", "lon": "-8.50", "elev": "98", "bundesland": "Andalusien", "report_available": 1}, "08545": {"name": "PORTO", "icao": "LPPR", "lat": "41.14", "lon": "-8.41", "elev": "69", "bundesland": "Distrikt Bragança", "report_available": 1}, "08546": {"name": "PORTO/SERRA DO PILAR", "icao": "----", "lat": "41.08", "lon": "-8.36", "elev": "93", "bundesland": "Distrikt Viseu", "report_available": 0}, "08547": {"name": "AVEIRO", "icao": "----", "lat": "40.39", "lon": "-8.44", "elev": "8", "bundesland": "Distrikt Guarda", "report_available": 0}, "08548": {"name": "COIMBRA/CERVACHE", "icao": "LPCO", "lat": "40.09", "lon": "-8.28", "elev": "179", "bundesland": "Distrikt Castelo Branco", "report_available": 1}, "08551": {"name": "VIANA DO CASTELO", "icao": "----", "lat": "41.38", "lon": "-8.48", "elev": "48", "bundesland": "Distrikt Bragança", "report_available": 0}, "08554": {"name": "FARO", "icao": "LPFR", "lat": "37.01", "lon": "-7.58", "elev": "7", "bundesland": "Andalusien", "report_available": 1}, "08562": {"name": "BEJA", "icao": "----", "lat": "38.01", "lon": "-7.52", "elev": "246", "bundesland": "Extremadura", "report_available": 0}, "08567": {"name": "VILA REAL", "icao": "LPVR", "lat": "41.16", "lon": "-7.43", "elev": "561", "bundesland": "Kastilien und León", "report_available": 1}, "08571": {"name": "PORTALEGRE", "icao": "----", "lat": "39.17", "lon": "-7.25", "elev": "467", "bundesland": "Extremadura", "report_available": 1}, "08579": {"name": "LISBOA/GAGO COUTINHO", "icao": "----", "lat": "38.46", "lon": "-9.08", "elev": "104", "bundesland": "Distrikt Santarém", "report_available": 1}, "08589": {"name": "CAP VERDEN/PRAIA", "icao": "----", "lat": "14.54", "lon": "-23.31", "elev": "27", "bundesland": "", "report_available": 0}, "08594": {"name": "SAL", "icao": "GVAC", "lat": "16.44", "lon": "-22.57", "elev": "54", "bundesland": "", "report_available": 0}, "10004": {"name": "Wehr/Eifel", "icao": "----", "lat": "50.417", "lon": "7.2", "elev": "300", "bundesland": "RP", "report_available": 1}, "10007": {"name": "UFS Deutsche Bucht", "icao": "----", "lat": "54.1796", "lon": "7.4587", "elev": "0", "bundesland": "HH", "report_available": 1}, "10015": {"name": "Welling", "icao": "----", "lat": "50.333", "lon": "7.317", "elev": "200", "bundesland": "RP", "report_available": 1}, "10018": {"name": "Rheinbrohl", "icao": "EDXW", "lat": "50.5", "lon": "7.333", "elev": "80", "bundesland": "RP", "report_available": 0}, "10020": {"name": "List auf Sylt", "icao": "----", "lat": "55.011", "lon": "8.4125", "elev": "25", "bundesland": "SH", "report_available": 1}, "10022": {"name": "Segendorf", "icao": "EDXK", "lat": "50.467", "lon": "7.45", "elev": "120", "bundesland": "RP", "report_available": 1}, "10026": {"name": "Schwesing", "icao": "----", "lat": "54.5166", "lon": "9.142", "elev": "37", "bundesland": "SH", "report_available": 0}, "10028": {"name": "Sankt Peter-Ording", "icao": "----", "lat": "54.3279", "lon": "8.6031", "elev": "5", "bundesland": "SH", "report_available": 1}, "10033": {"name": "Glücksburg-Meierwik", "icao": "ETGG", "lat": "54.8273", "lon": "9.5058", "elev": "12", "bundesland": "SH", "report_available": 1}, "10034": {"name": "Gemünden/Hunsr.", "icao": "ETME", "lat": "49.9", "lon": "7.483", "elev": "290", "bundesland": "RP", "report_available": 0}, "10035": {"name": "Schwarzerden", "icao": "----", "lat": "49.867", "lon": "7.517", "elev": "480", "bundesland": "RP", "report_available": 1}, "10037": {"name": "Schleswig-Jagel", "icao": "ETNS", "lat": "54.457", "lon": "9.5203", "elev": "21", "bundesland": "SH", "report_available": 1}, "10038": {"name": "Kastellaun (PH)", "icao": "ETNH", "lat": "50.083", "lon": "7.45", "elev": "400", "bundesland": "RP", "report_available": 1}, "10042": {"name": "Zell/Mosel", "icao": "----", "lat": "50.033", "lon": "7.183", "elev": "140", "bundesland": "RP", "report_available": 1}, "10044": {"name": "Leuchtturm Kiel", "icao": "----", "lat": "54.4996", "lon": "10.2737", "elev": "0", "bundesland": "SH", "report_available": 1}, "10046": {"name": "Kiel-Holtenau", "icao": "EDHK", "lat": "54.3776", "lon": "10.1424", "elev": "28", "bundesland": "SH", "report_available": 1}, "10055": {"name": "Maring-Noviand", "icao": "----", "lat": "49.917", "lon": "7", "elev": "130", "bundesland": "RP", "report_available": 1}, "10063": {"name": "Puttgarden", "icao": "----", "lat": "54.5", "lon": "11.2167", "elev": "1", "bundesland": "SH", "report_available": 0}, "10091": {"name": "Oberbettingen", "icao": "----", "lat": "50.283", "lon": "6.633", "elev": "450", "bundesland": "RP", "report_available": 1}, "10093": {"name": "Putbus", "icao": "----", "lat": "54.3643", "lon": "13.4771", "elev": "40", "bundesland": "MV", "report_available": 1}, "10097": {"name": "Greifswalder Oie", "icao": "----", "lat": "54.2437", "lon": "13.9102", "elev": "12", "bundesland": "MV", "report_available": 1}, "10113": {"name": "Norderney", "icao": "----", "lat": "53.7123", "lon": "7.1519", "elev": "12", "bundesland": "NI", "report_available": 1}, "10122": {"name": "Kenn", "icao": "ETNJ", "lat": "49.8", "lon": "6.717", "elev": "140", "bundesland": "RP", "report_available": 0}, "10124": {"name": "Mehring/Mosel", "icao": "----", "lat": "49.8", "lon": "6.833", "elev": "130", "bundesland": "RP", "report_available": 1}, "10125": {"name": "Trier-Kernscheid", "icao": "EDWI", "lat": "49.733", "lon": "6.683", "elev": "240", "bundesland": "RP", "report_available": 0}, "10126": {"name": "Wittmundhafen", "icao": "ETNT", "lat": "53.5503", "lon": "7.6672", "elev": "10", "bundesland": "NI", "report_available": 1}, "10129": {"name": "Welschbillig", "icao": "----", "lat": "49.85", "lon": "6.567", "elev": "300", "bundesland": "RP", "report_available": 1}, "10130": {"name": "Wittlich (PH)", "icao": "----", "lat": "49.983", "lon": "6.883", "elev": "160", "bundesland": "RP", "report_available": 1}, "10131": {"name": "Wittlich-Neuerburg", "icao": "----", "lat": "50", "lon": "6.95", "elev": "200", "bundesland": "RP", "report_available": 1}, "10136": {"name": "Plein", "icao": "ETMN", "lat": "50.033", "lon": "6.883", "elev": "360", "bundesland": "RP", "report_available": 1}, "10139": {"name": "Hachenburg (Ph)", "icao": "----", "lat": "50.667", "lon": "7.817", "elev": "360", "bundesland": "RP", "report_available": 1}, "10142": {"name": "Meudt", "icao": "ETHI", "lat": "50.483", "lon": "7.883", "elev": "330", "bundesland": "RP", "report_available": 1}, "10143": {"name": "Niedermörsbach", "icao": "----", "lat": "50.717", "lon": "7.767", "elev": "300", "bundesland": "RP", "report_available": 0}, "10146": {"name": "Sainerholz", "icao": "----", "lat": "50.517", "lon": "7.85", "elev": "400", "bundesland": "RP", "report_available": 1}, "10147": {"name": "Westerburg/Westerw.", "icao": "EDDH", "lat": "50.567", "lon": "7.967", "elev": "340", "bundesland": "RP", "report_available": 1}, "10150": {"name": "Kaub", "icao": "----", "lat": "50.083", "lon": "7.767", "elev": "100", "bundesland": "RP", "report_available": 1}, "10152": {"name": "Pelzerhaken", "icao": "----", "lat": "54.0893", "lon": "10.8773", "elev": "2", "bundesland": "SH", "report_available": 1}, "10156": {"name": "Sankt Goarshausen", "icao": "EDHL", "lat": "50.15", "lon": "7.733", "elev": "120", "bundesland": "RP", "report_available": 1}, "10161": {"name": "Diez", "icao": "----", "lat": "50.383", "lon": "8.017", "elev": "120", "bundesland": "RP", "report_available": 1}, "10162": {"name": "Schwerin", "icao": "----", "lat": "53.6424", "lon": "11.3871", "elev": "59", "bundesland": "MV", "report_available": 1}, "10168": {"name": "Höhr-Grenzhausen (Ph)", "icao": "----", "lat": "50.433", "lon": "7.667", "elev": "250", "bundesland": "RP", "report_available": 1}, "10170": {"name": "Rostock-Warnemünde", "icao": "----", "lat": "54.1803", "lon": "12.0808", "elev": "5", "bundesland": "MV", "report_available": 1}, "10172": {"name": "Siershahn", "icao": "ETNL", "lat": "50.483", "lon": "7.767", "elev": "290", "bundesland": "RP", "report_available": 1}, "10177": {"name": "Alzey (PH)", "icao": "----", "lat": "49.75", "lon": "8.117", "elev": "190", "bundesland": "RP", "report_available": 0}, "10180": {"name": "Ensheim/Rheinhess.", "icao": "----", "lat": "49.8", "lon": "8.117", "elev": "190", "bundesland": "RP", "report_available": 1}, "10181": {"name": "Parow (Flugplatz)", "icao": "EDCP", "lat": "54.3667", "lon": "13.0833", "elev": "4", "bundesland": "MV", "report_available": 0}, "10184": {"name": "Wallertheim", "icao": "----", "lat": "49.833", "lon": "8.05", "elev": "120", "bundesland": "RP", "report_available": 1}, "10193": {"name": "Ueckermünde", "icao": "----", "lat": "53.7445", "lon": "14.0698", "elev": "1", "bundesland": "MV", "report_available": 1}, "10200": {"name": "Hessloch", "icao": "----", "lat": "49.733", "lon": "8.25", "elev": "170", "bundesland": "RP", "report_available": 1}, "10203": {"name": "Rheindürkheim", "icao": "----", "lat": "49.7", "lon": "8.35", "elev": "90", "bundesland": "RP", "report_available": 0}, "10210": {"name": "Speyer, kreisfreie Stadt Speyer", "icao": "----", "lat": "49.317", "lon": "8.433", "elev": "95", "bundesland": "RP", "report_available": 1}, "10215": {"name": "Schwanheim", "icao": "EDWH", "lat": "49.167", "lon": "7.883", "elev": "240", "bundesland": "RP", "report_available": 0}, "10218": {"name": "Asselheim", "icao": "ETNA", "lat": "49.583", "lon": "8.167", "elev": "150", "bundesland": "RP", "report_available": 0}, "10224": {"name": "Freckenfeld", "icao": "EDDW", "lat": "49.067", "lon": "8.117", "elev": "140", "bundesland": "RP", "report_available": 1}, "10234": {"name": "Rotenburg (Wümme) (Flugplatz)", "icao": "ETGQ", "lat": "53.1333", "lon": "9.35", "elev": "34", "bundesland": "NI", "report_available": 0}, "10235": {"name": "Soltau", "icao": "----", "lat": "52.9604", "lon": "9.793", "elev": "75", "bundesland": "NI", "report_available": 1}, "10238": {"name": "Otterberg", "icao": "ETGB", "lat": "49.5", "lon": "7.767", "elev": "250", "bundesland": "RP", "report_available": 1}, "10246": {"name": "Ramsen", "icao": "ETHS", "lat": "49.533", "lon": "8.017", "elev": "220", "bundesland": "RP", "report_available": 1}, "10249": {"name": "Brücken/Pfalz", "icao": "----", "lat": "49.433", "lon": "7.367", "elev": "250", "bundesland": "RP", "report_available": 1}, "10253": {"name": "Miesau", "icao": "----", "lat": "49.4", "lon": "7.433", "elev": "240", "bundesland": "RP", "report_available": 1}, "10261": {"name": "Seehausen", "icao": "----", "lat": "52.8911", "lon": "11.7297", "elev": "21", "bundesland": "ST", "report_available": 1}, "10264": {"name": "Marnitz", "icao": "----", "lat": "53.3222", "lon": "11.9321", "elev": "81", "bundesland": "MV", "report_available": 1}, "10267": {"name": "Kyritz", "icao": "----", "lat": "52.9362", "lon": "12.4093", "elev": "40", "bundesland": "BB", "report_available": 1}, "10268": {"name": "Waren (Müritz)", "icao": "----", "lat": "53.5196", "lon": "12.6654", "elev": "73", "bundesland": "MV", "report_available": 1}, "10270": {"name": "Neuruppin", "icao": "----", "lat": "52.9037", "lon": "12.8071", "elev": "38", "bundesland": "BB", "report_available": 0}, "10271": {"name": "Neuruppin-Alt Ruppin", "icao": "----", "lat": "52.9437", "lon": "12.8518", "elev": "50", "bundesland": "BB", "report_available": 1}, "10272": {"name": "Wittstock", "icao": "ETGW", "lat": "53.1833", "lon": "12.5167", "elev": "72", "bundesland": "BB", "report_available": 0}, "10273": {"name": "Elmstein", "icao": "EDCJ", "lat": "49.35", "lon": "7.95", "elev": "230", "bundesland": "RP", "report_available": 0}, "10277": {"name": "Neuglobsow (HM)", "icao": "----", "lat": "53.1424", "lon": "13.0319", "elev": "62", "bundesland": "BB", "report_available": 0}, "10280": {"name": "Wachenheim", "icao": "----", "lat": "49.433", "lon": "8.183", "elev": "160", "bundesland": "RP", "report_available": 0}, "10281": {"name": "Weidenthal", "icao": "ETNU", "lat": "49.417", "lon": "7.983", "elev": "220", "bundesland": "RP", "report_available": 1}, "10282": {"name": "Feldberg/Mecklenburg", "icao": "----", "lat": "53.3176", "lon": "13.4175", "elev": "115", "bundesland": "MV", "report_available": 1}, "10289": {"name": "Lemberg", "icao": "----", "lat": "49.183", "lon": "7.65", "elev": "360", "bundesland": "RP", "report_available": 1}, "10291": {"name": "Nünschweiler", "icao": "----", "lat": "49.217", "lon": "7.5", "elev": "310", "bundesland": "RP", "report_available": 1}, "10303": {"name": "Lingen-Baccum", "icao": "----", "lat": "52.5126", "lon": "7.4131", "elev": "40", "bundesland": "NI", "report_available": 0}, "10305": {"name": "Lingen", "icao": "----", "lat": "52.5181", "lon": "7.3081", "elev": "22", "bundesland": "NI", "report_available": 0}, "10306": {"name": "Rheine-Bentlage", "icao": "ETHE", "lat": "52.2887", "lon": "7.3866", "elev": "40", "bundesland": "NW", "report_available": 0}, "10308": {"name": "Contwig", "icao": "----", "lat": "49.25", "lon": "7.433", "elev": "240", "bundesland": "RP", "report_available": 0}, "10309": {"name": "Hornbach", "icao": "----", "lat": "49.183", "lon": "7.367", "elev": "250", "bundesland": "RP", "report_available": 1}, "10312": {"name": "Reifenberg", "icao": "----", "lat": "49.283", "lon": "7.517", "elev": "350", "bundesland": "RP", "report_available": 1}, "10314": {"name": "Zweibrücken-Wattweiler", "icao": "ETNP", "lat": "49.233", "lon": "7.317", "elev": "280", "bundesland": "RP", "report_available": 0}, "10315": {"name": "Münster/Osnabrück", "icao": "EDDG", "lat": "52.1344", "lon": "7.6969", "elev": "48", "bundesland": "NW", "report_available": 1}, "10317": {"name": "Stuttgart-Rohr (Ph)", "icao": "----", "lat": "48.717", "lon": "9.1", "elev": "453", "bundesland": "BW", "report_available": 0}, "10320": {"name": "Stuttgart-Vaihingen", "icao": "ETUO", "lat": "48.75", "lon": "9.083", "elev": "450", "bundesland": "BW", "report_available": 0}, "10321": {"name": "Stuttgart-Degerloch", "icao": "ETND", "lat": "48.75", "lon": "9.167", "elev": "440", "bundesland": "BW", "report_available": 1}, "10324": {"name": "Adelmannsfelden (PH)", "icao": "----", "lat": "48.95", "lon": "10", "elev": "470", "bundesland": "BW", "report_available": 0}, "10325": {"name": "Salzuflen, Bad", "icao": "----", "lat": "52.1042", "lon": "8.7521", "elev": "135", "bundesland": "NW", "report_available": 1}, "10326": {"name": "Ellenberg", "icao": "EDLI", "lat": "49.017", "lon": "10.217", "elev": "570", "bundesland": "BW", "report_available": 0}, "10334": {"name": "Wunstorf", "icao": "ETNW", "lat": "52.4626", "lon": "9.4245", "elev": "49", "bundesland": "NI", "report_available": 1}, "10335": {"name": "Wasseralfingen", "icao": "ETHB", "lat": "48.867", "lon": "10.117", "elev": "430", "bundesland": "BW", "report_available": 1}, "10338": {"name": "Hannover", "icao": "EDDV", "lat": "52.4644", "lon": "9.6779", "elev": "55", "bundesland": "NI", "report_available": 1}, "10343": {"name": "Murrhardt", "icao": "ETHC", "lat": "48.983", "lon": "9.583", "elev": "290", "bundesland": "BW", "report_available": 1}, "10348": {"name": "Böblingen (PH)", "icao": "----", "lat": "48.683", "lon": "9.017", "elev": "460", "bundesland": "BW", "report_available": 1}, "10356": {"name": "Ummendorf", "icao": "----", "lat": "52.1601", "lon": "11.1759", "elev": "159", "bundesland": "ST", "report_available": 1}, "10359": {"name": "Horschhausen", "icao": "----", "lat": "49.183", "lon": "10.167", "elev": "470", "bundesland": "BW", "report_available": 1}, "10361": {"name": "Magdeburg", "icao": "EDBM", "lat": "52.1029", "lon": "11.5827", "elev": "79", "bundesland": "ST", "report_available": 1}, "10365": {"name": "Tempelhof", "icao": "----", "lat": "49.133", "lon": "10.2", "elev": "460", "bundesland": "BW", "report_available": 1}, "10368": {"name": "Wiesenburg", "icao": "----", "lat": "52.1206", "lon": "12.4586", "elev": "187", "bundesland": "BB", "report_available": 1}, "10376": {"name": "Esslingen-Zell", "icao": "----", "lat": "48.733", "lon": "9.367", "elev": "270", "bundesland": "BW", "report_available": 1}, "10379": {"name": "Potsdam", "icao": "----", "lat": "52.381", "lon": "13.062", "elev": "81", "bundesland": "BB", "report_available": 1}, "10381": {"name": "Hohrain", "icao": "----", "lat": "48.733", "lon": "9.717", "elev": "420", "bundesland": "BW", "report_available": 1}, "10382": {"name": "Schlierbach/Württ.", "icao": "EDDT", "lat": "48.683", "lon": "9.517", "elev": "350", "bundesland": "BW", "report_available": 1}, "10384": {"name": "Wiesensteig (PH)", "icao": "EDDI", "lat": "48.567", "lon": "9.633", "elev": "600", "bundesland": "BW", "report_available": 1}, "10385": {"name": "Dettingen", "icao": "EDDB", "lat": "48.6", "lon": "10.133", "elev": "580", "bundesland": "BW", "report_available": 1}, "10389": {"name": "Heidenheim/Brenz (Ph)", "icao": "----", "lat": "48.683", "lon": "10.167", "elev": "570", "bundesland": "BW", "report_available": 0}, "10393": {"name": "Lindenberg", "icao": "----", "lat": "52.209", "lon": "14.118", "elev": "98", "bundesland": "BB", "report_available": 1}, "10396": {"name": "Manschnow", "icao": "----", "lat": "52.5468", "lon": "14.5453", "elev": "12", "bundesland": "BB", "report_available": 1}, "10400": {"name": "Düsseldorf", "icao": "EDDL", "lat": "51.296", "lon": "6.7686", "elev": "37", "bundesland": "NW", "report_available": 1}, "10401": {"name": "Frankenbach", "icao": "ETUR", "lat": "49.167", "lon": "9.167", "elev": "170", "bundesland": "BW", "report_available": 0}, "10403": {"name": "Brackenheim-Hausen", "icao": "EDLN", "lat": "49.083", "lon": "9.1", "elev": "200", "bundesland": "BW", "report_available": 0}, "10404": {"name": "Kleingartach", "icao": "ETGY", "lat": "49.1", "lon": "8.967", "elev": "220", "bundesland": "BW", "report_available": 0}, "10405": {"name": "Lampoldshausen", "icao": "EDLV", "lat": "49.267", "lon": "9.4", "elev": "250", "bundesland": "BW", "report_available": 0}, "10406": {"name": "Lauffen", "icao": "----", "lat": "49.083", "lon": "9.15", "elev": "170", "bundesland": "BW", "report_available": 0}, "10410": {"name": "Weinsberg", "icao": "----", "lat": "49.15", "lon": "9.283", "elev": "220", "bundesland": "BW", "report_available": 1},